State,County,UID,FIPS,Lat,Long,Date,#Covid_cases
California,Alameda,84006001,6001.0,37.64629437,-121.8929271,2020-01-31,0
California,Alpine,84006003,6003.0,38.59678594,-119.82235940000001,2020-01-31,0
California,Amador,84006005,6005.0,38.44583082,-120.65696000000001,2020-01-31,0
California,Butte,84006007,6007.0,39.66727762,-121.6005252,2020-01-31,0
California,Calaveras,84006009,6009.0,38.20537103,-120.55291299999999,2020-01-31,0
California,Colusa,84006011,6011.0,39.17881957,-122.2331726,2020-01-31,0
California,Contra Costa,84006013,6013.0,37.91923498,-121.9289527,2020-01-31,0
California,Del Norte,84006015,6015.0,41.74228275,-123.89740630000001,2020-01-31,0
California,El Dorado,84006017,6017.0,38.77965956,-120.5233166,2020-01-31,0
California,Fresno,84006019,6019.0,36.75733899,-119.6466953,2020-01-31,0
California,Glenn,84006021,6021.0,39.59875897,-122.3938452,2020-01-31,0
California,Humboldt,84006023,6023.0,40.69923009,-123.876044,2020-01-31,0
California,Imperial,84006025,6025.0,33.0393082,-115.36690420000001,2020-01-31,0
California,Inyo,84006027,6027.0,36.51112084,-117.41119779999998,2020-01-31,0
California,Kern,84006029,6029.0,35.34329425,-118.72777959999999,2020-01-31,0
California,Kings,84006031,6031.0,36.07409056,-119.8159973,2020-01-31,0
California,Lake,84006033,6033.0,39.10124298,-122.75362439999999,2020-01-31,0
California,Lassen,84006035,6035.0,40.67311306,-120.59350990000002,2020-01-31,0
California,Los Angeles,84006037,6037.0,34.30828379,-118.22824109999999,2020-01-31,0
California,Madera,84006039,6039.0,37.21513971,-119.76655890000002,2020-01-31,0
California,Marin,84006041,6041.0,38.07122463,-122.72106310000001,2020-01-31,0
California,Mariposa,84006043,6043.0,37.57978556,-119.9073334,2020-01-31,0
California,Mendocino,84006045,6045.0,39.4381191,-123.39113130000001,2020-01-31,0
California,Merced,84006047,6047.0,37.18922369,-120.72090349999999,2020-01-31,0
California,Modoc,84006049,6049.0,41.58965602,-120.7244817,2020-01-31,0
California,Mono,84006051,6051.0,37.93899289,-118.8872409,2020-01-31,0
California,Monterey,84006053,6053.0,36.21862405,-121.24133970000001,2020-01-31,0
California,Napa,84006055,6055.0,38.50735751,-122.33283899999999,2020-01-31,0
California,Nevada,84006057,6057.0,39.30394768,-120.76272809999999,2020-01-31,0
California,Orange,84006059,6059.0,33.70147516,-117.76459979999998,2020-01-31,0
California,Out of CA,84080006,80006.0,0.0,0.0,2020-01-31,0
California,Placer,84006061,6061.0,39.06167234,-120.72405690000001,2020-01-31,0
California,Plumas,84006063,6063.0,40.00355989,-120.8395236,2020-01-31,0
California,Riverside,84006065,6065.0,33.74314981,-115.9933578,2020-01-31,0
California,Sacramento,84006067,6067.0,38.45106826,-121.34253740000001,2020-01-31,0
California,San Benito,84006069,6069.0,36.60308176,-121.069975,2020-01-31,0
California,San Bernardino,84006071,6071.0,34.84060306,-116.1774685,2020-01-31,0
California,San Diego,84006073,6073.0,33.03484597,-116.73653259999999,2020-01-31,0
California,San Francisco,84006075,6075.0,37.75215114,-122.43856720000001,2020-01-31,0
California,San Joaquin,84006077,6077.0,37.93433732,-121.2730061,2020-01-31,0
California,San Luis Obispo,84006079,6079.0,35.38822029,-120.4039028,2020-01-31,0
California,San Mateo,84006081,6081.0,37.422880799999994,-122.32755459999998,2020-01-31,0
California,Santa Barbara,84006083,6083.0,34.65329488,-120.0188492,2020-01-31,0
California,Santa Clara,84006085,6085.0,37.23104908,-121.6970462,2020-01-31,0
California,Santa Cruz,84006087,6087.0,37.05580291,-122.0066524,2020-01-31,0
California,Shasta,84006089,6089.0,40.76391419,-122.0396884,2020-01-31,0
California,Sierra,84006091,6091.0,39.57713498,-120.52007009999998,2020-01-31,0
California,Siskiyou,84006093,6093.0,41.59198861,-122.54074340000001,2020-01-31,0
California,Solano,84006095,6095.0,38.26827353,-121.9357113,2020-01-31,0
California,Sonoma,84006097,6097.0,38.52746429,-122.88625060000001,2020-01-31,0
California,Stanislaus,84006099,6099.0,37.55862499,-120.9970722,2020-01-31,0
California,Sutter,84006101,6101.0,39.03417539,-121.6945899,2020-01-31,0
California,Tehama,84006103,6103.0,40.12570935,-122.23701709999999,2020-01-31,0
California,Trinity,84006105,6105.0,40.64917670000001,-123.114713,2020-01-31,0
California,Tulare,84006107,6107.0,36.22026558,-118.8020203,2020-01-31,0
California,Tuolumne,84006109,6109.0,38.02644018,-119.95250929999999,2020-01-31,0
California,Unassigned,84090006,90006.0,0.0,0.0,2020-01-31,0
California,Ventura,84006111,6111.0,34.44465746,-119.09106129999999,2020-01-31,0
California,Yolo,84006113,6113.0,38.68278902,-121.90182879999999,2020-01-31,0
California,Yuba,84006115,6115.0,39.26255932,-121.35356440000001,2020-01-31,0
Colorado,Adams,84008001,8001.0,39.87432092,-104.3362578,2020-01-31,0
Colorado,Alamosa,84008003,8003.0,37.57250606,-105.7885451,2020-01-31,0
Colorado,Arapahoe,84008005,8005.0,39.64977461,-104.3353617,2020-01-31,0
Colorado,Archuleta,84008007,8007.0,37.19474156,-107.04768670000001,2020-01-31,0
Colorado,Baca,84008009,8009.0,37.31940883,-102.5603223,2020-01-31,0
Colorado,Bent,84008011,8011.0,37.95474293,-103.0720195,2020-01-31,0
Colorado,Boulder,84008013,8013.0,40.09313619,-105.3546767,2020-01-31,0
Colorado,Broomfield,84008014,8014.0,39.95998787,-105.0566324,2020-01-31,0
Colorado,Chaffee,84008015,8015.0,38.74745778,-106.19265729999998,2020-01-31,0
Colorado,Cheyenne,84008017,8017.0,38.82777431,-102.6032558,2020-01-31,0
Colorado,Clear Creek,84008019,8019.0,39.68864463,-105.6463118,2020-01-31,0
Colorado,Conejos,84008021,8021.0,37.201606,-106.19174879999998,2020-01-31,0
Colorado,Costilla,84008023,8023.0,37.27732493,-105.4276548,2020-01-31,0
Colorado,Crowley,84008025,8025.0,38.32608609,-103.7844965,2020-01-31,0
Colorado,Custer,84008027,8027.0,38.10883162,-105.3683478,2020-01-31,0
Colorado,Delta,84008029,8029.0,38.86246243,-107.86313419999999,2020-01-31,0
Colorado,Denver,84008031,8031.0,39.76018276,-104.87256950000001,2020-01-31,0
Colorado,Dolores,84008033,8033.0,37.75208676,-108.5211585,2020-01-31,0
Colorado,Douglas,84008035,8035.0,39.33133796,-104.930001,2020-01-31,0
Colorado,Eagle,84008037,8037.0,39.62754308,-106.6933637,2020-01-31,0
Colorado,El Paso,84008041,8041.0,38.83240149,-104.5251411,2020-01-31,0
Colorado,Elbert,84008039,8039.0,39.28656773,-104.13587209999999,2020-01-31,0
Colorado,Fremont,84008043,8043.0,38.47362326,-105.43996670000001,2020-01-31,0
Colorado,Garfield,84008045,8045.0,39.59921777,-107.902708,2020-01-31,0
Colorado,Gilpin,84008047,8047.0,39.85646523,-105.5252597,2020-01-31,0
Colorado,Grand,84008049,8049.0,40.10603347,-106.11780420000001,2020-01-31,0
Colorado,Gunnison,84008051,8051.0,38.66611652,-107.0320729,2020-01-31,0
Colorado,Hinsdale,84008053,8053.0,37.82247444,-107.3004345,2020-01-31,0
Colorado,Huerfano,84008055,8055.0,37.68473101,-104.9612585,2020-01-31,0
Colorado,Jackson,84008057,8057.0,40.66593870000001,-106.3408905,2020-01-31,0
Colorado,Jefferson,84008059,8059.0,39.58635604,-105.2517692,2020-01-31,0
Colorado,Kiowa,84008061,8061.0,38.43260896,-102.7392145,2020-01-31,0
Colorado,Kit Carson,84008063,8063.0,39.30497777,-102.60221990000001,2020-01-31,0
Colorado,La Plata,84008067,8067.0,37.28632032,-107.8429014,2020-01-31,0
Colorado,Lake,84008065,8065.0,39.20278823,-106.35556969999999,2020-01-31,0
Colorado,Larimer,84008069,8069.0,40.66671597,-105.4625784,2020-01-31,0
Colorado,Las Animas,84008071,8071.0,37.3153406,-104.03764579999999,2020-01-31,0
Colorado,Lincoln,84008073,8073.0,38.98749519,-103.51366490000001,2020-01-31,0
Colorado,Logan,84008075,8075.0,40.7249637,-103.110817,2020-01-31,0
Colorado,Mesa,84008077,8077.0,39.01787888,-108.469799,2020-01-31,0
Colorado,Mineral,84008079,8079.0,37.66954283,-106.92816979999999,2020-01-31,0
Colorado,Moffat,84008081,8081.0,40.61810999,-108.2070876,2020-01-31,0
Colorado,Montezuma,84008083,8083.0,37.33859579,-108.59588570000001,2020-01-31,0
Colorado,Montrose,84008085,8085.0,38.40214114,-108.26390220000002,2020-01-31,0
Colorado,Morgan,84008087,8087.0,40.26279810000001,-103.8093302,2020-01-31,0
Colorado,Otero,84008089,8089.0,37.9014485,-103.7173385,2020-01-31,0
Colorado,Ouray,84008091,8091.0,38.14717457,-107.7675136,2020-01-31,0
Colorado,Out of CO,84080008,80008.0,0.0,0.0,2020-01-31,0
Colorado,Park,84008093,8093.0,39.120926000000004,-105.7182065,2020-01-31,0
Colorado,Phillips,84008095,8095.0,40.59414277,-102.3577703,2020-01-31,0
Colorado,Pitkin,84008097,8097.0,39.21720112,-106.9310027,2020-01-31,0
Colorado,Prowers,84008099,8099.0,37.95544985,-102.3926052,2020-01-31,0
Colorado,Pueblo,84008101,8101.0,38.17359144,-104.5127437,2020-01-31,0
Colorado,Rio Blanco,84008103,8103.0,39.97913541,-108.2179009,2020-01-31,0
Colorado,Rio Grande,84008105,8105.0,37.5836865,-106.3847838,2020-01-31,0
Colorado,Routt,84008107,8107.0,40.48596505,-106.9905548,2020-01-31,0
Colorado,Saguache,84008109,8109.0,38.08054629,-106.28246599999999,2020-01-31,0
Colorado,San Juan,84008111,8111.0,37.76248981,-107.67632890000002,2020-01-31,0
Colorado,San Miguel,84008113,8113.0,38.00450883,-108.4020725,2020-01-31,0
Colorado,Sedgwick,84008115,8115.0,40.87595412,-102.3519227,2020-01-31,0
Colorado,Summit,84008117,8117.0,39.63803232,-106.1150762,2020-01-31,0
Colorado,Teller,84008119,8119.0,38.88133511,-105.16148929999999,2020-01-31,0
Colorado,Unassigned,84090008,90008.0,0.0,0.0,2020-01-31,0
Colorado,Washington,84008121,8121.0,39.97015535,-103.202587,2020-01-31,0
Colorado,Weld,84008123,8123.0,40.55499405,-104.39296209999999,2020-01-31,0
Colorado,Yuma,84008125,8125.0,40.00346839,-102.4258673,2020-01-31,0
Texas,Anderson,84048001,48001.0,31.81534745,-95.65354823,2020-01-31,0
Texas,Andrews,84048003,48003.0,32.30468633,-102.63765479999999,2020-01-31,0
Texas,Angelina,84048005,48005.0,31.25457347,-94.60901487,2020-01-31,0
Texas,Aransas,84048007,48007.0,28.10556197,-96.9995047,2020-01-31,0
Texas,Archer,84048009,48009.0,33.61569967,-98.68754589,2020-01-31,0
Texas,Armstrong,84048011,48011.0,34.96507426,-101.35748740000001,2020-01-31,0
Texas,Atascosa,84048013,48013.0,28.89333001,-98.52730485,2020-01-31,0
Texas,Austin,84048015,48015.0,29.88548725,-96.27736949,2020-01-31,0
Texas,Bailey,84048017,48017.0,34.06854817,-102.8299707,2020-01-31,0
Texas,Bandera,84048019,48019.0,29.74619598,-99.24598147,2020-01-31,0
Texas,Bastrop,84048021,48021.0,30.10370699,-97.31206354,2020-01-31,0
Texas,Baylor,84048023,48023.0,33.61640794,-99.21352901,2020-01-31,0
Texas,Bee,84048025,48025.0,28.41761668,-97.74215593,2020-01-31,0
Texas,Bell,84048027,48027.0,31.03736027,-97.4785025,2020-01-31,0
Texas,Bexar,84048029,48029.0,29.44928723,-98.52019748,2020-01-31,0
Texas,Blanco,84048031,48031.0,30.26640707,-98.3999852,2020-01-31,0
Texas,Borden,84048033,48033.0,32.74363984,-101.43165090000001,2020-01-31,0
Texas,Bosque,84048035,48035.0,31.89978581,-97.63613524,2020-01-31,0
Texas,Bowie,84048037,48037.0,33.44626922,-94.41834132,2020-01-31,0
Texas,Brazoria,84048039,48039.0,29.18757369,-95.44563172,2020-01-31,0
Texas,Brazos,84048041,48041.0,30.663644800000004,-96.30205577,2020-01-31,0
Texas,Brewster,84048043,48043.0,29.81008251,-103.25203259999999,2020-01-31,0
Texas,Briscoe,84048045,48045.0,34.53026962,-101.2084947,2020-01-31,0
Texas,Brooks,84048047,48047.0,27.03103197,-98.21808402,2020-01-31,0
Texas,Brown,84048049,48049.0,31.77430356,-98.99907113,2020-01-31,0
Texas,Burleson,84048051,48051.0,30.49273808,-96.62158484,2020-01-31,0
Texas,Burnet,84048053,48053.0,30.78801353,-98.181887,2020-01-31,0
Texas,Caldwell,84048055,48055.0,29.83668859,-97.61814775,2020-01-31,0
Texas,Calhoun,84048057,48057.0,28.47048236,-96.61633945,2020-01-31,0
Texas,Callahan,84048059,48059.0,32.29760619,-99.37326312,2020-01-31,0
Texas,Cameron,84048061,48061.0,26.14524221,-97.48140372,2020-01-31,0
Texas,Camp,84048063,48063.0,32.97195142,-94.97790104,2020-01-31,0
Texas,Carson,84048065,48065.0,35.40365929,-101.35426690000001,2020-01-31,0
Texas,Cass,84048067,48067.0,33.07499881,-94.34646905,2020-01-31,0
Texas,Castro,84048069,48069.0,34.53016752,-102.2617243,2020-01-31,0
Texas,Chambers,84048071,48071.0,29.70972016,-94.67154501,2020-01-31,0
Texas,Cherokee,84048073,48073.0,31.837258000000002,-95.16559897,2020-01-31,0
Texas,Childress,84048075,48075.0,34.529304100000004,-100.2077916,2020-01-31,0
Texas,Clay,84048077,48077.0,33.78686685,-98.20771198,2020-01-31,0
Texas,Cochran,84048079,48079.0,33.60425307,-102.82844990000001,2020-01-31,0
Texas,Coke,84048081,48081.0,31.88911733,-100.5297533,2020-01-31,0
Texas,Coleman,84048083,48083.0,31.76736834,-99.45240766,2020-01-31,0
Texas,Collin,84048085,48085.0,33.18820114,-96.57264368,2020-01-31,0
Texas,Collingsworth,84048087,48087.0,34.96489496,-100.27001109999999,2020-01-31,0
Texas,Colorado,84048089,48089.0,29.622097999999998,-96.5273805,2020-01-31,0
Texas,Comal,84048091,48091.0,29.80811278,-98.27647225,2020-01-31,0
Texas,Comanche,84048093,48093.0,31.94854689,-98.55876441,2020-01-31,0
Texas,Concho,84048095,48095.0,31.32635934,-99.86473038,2020-01-31,0
Texas,Cooke,84048097,48097.0,33.63979567,-97.21240912,2020-01-31,0
Texas,Coryell,84048099,48099.0,31.39078397,-97.79936155,2020-01-31,0
Texas,Cottle,84048101,48101.0,34.07783319,-100.27850620000001,2020-01-31,0
Texas,Crane,84048103,48103.0,31.43052248,-102.5143314,2020-01-31,0
Texas,Crockett,84048105,48105.0,30.72367027,-101.4134238,2020-01-31,0
Texas,Crosby,84048107,48107.0,33.61431553,-101.30003640000001,2020-01-31,0
Texas,Culberson,84048109,48109.0,31.44506775,-104.5185739,2020-01-31,0
Texas,Dallam,84048111,48111.0,36.27787176,-102.60207249999999,2020-01-31,0
Texas,Dallas,84048113,48113.0,32.76670599,-96.77796049999999,2020-01-31,0
Texas,Dawson,84048115,48115.0,32.74255572,-101.94772420000001,2020-01-31,0
Texas,DeWitt,84048123,48123.0,29.08101855,-97.35681170000001,2020-01-31,0
Texas,Deaf Smith,84048117,48117.0,34.96522957,-102.6054267,2020-01-31,0
Texas,Delta,84048119,48119.0,33.38570922,-95.66921122,2020-01-31,0
Texas,Denton,84048121,48121.0,33.20521901,-97.11691153,2020-01-31,0
Texas,Dickens,84048125,48125.0,33.61616822,-100.7788855,2020-01-31,0
Texas,Dimmit,84048127,48127.0,28.42270064,-99.75645095,2020-01-31,0
Texas,Donley,84048129,48129.0,34.96517499,-100.8140093,2020-01-31,0
Texas,Duval,84048131,48131.0,27.68184592,-98.50864568,2020-01-31,0
Texas,Eastland,84048133,48133.0,32.32743996,-98.83243566,2020-01-31,0
Texas,Ector,84048135,48135.0,31.86898877,-102.54294279999999,2020-01-31,0
Texas,Edwards,84048137,48137.0,29.98202582,-100.304252,2020-01-31,0
Texas,El Paso,84048141,48141.0,31.76980765,-106.23632749999999,2020-01-31,0
Texas,Ellis,84048139,48139.0,32.34894117,-96.79371841,2020-01-31,0
Texas,Erath,84048143,48143.0,32.23602653,-98.21773417,2020-01-31,0
Texas,Falls,84048145,48145.0,31.25350609,-96.93630086,2020-01-31,0
Texas,Fannin,84048147,48147.0,33.59564294,-96.10751083,2020-01-31,0
Texas,Fayette,84048149,48149.0,29.87788372,-96.92076062,2020-01-31,0
Texas,Fisher,84048151,48151.0,32.74281316,-100.40193020000001,2020-01-31,0
Texas,Floyd,84048153,48153.0,34.07227468,-101.3031546,2020-01-31,0
Texas,Foard,84048155,48155.0,33.97308618,-99.7767797,2020-01-31,0
Texas,Fort Bend,84048157,48157.0,29.52704478,-95.77219463,2020-01-31,0
Texas,Franklin,84048159,48159.0,33.17653242,-95.21917243,2020-01-31,0
Texas,Freestone,84048161,48161.0,31.70422788,-96.15072516,2020-01-31,0
Texas,Frio,84048163,48163.0,28.86751206,-99.10804207,2020-01-31,0
Texas,Gaines,84048165,48165.0,32.74055318,-102.6353295,2020-01-31,0
Texas,Galveston,84048167,48167.0,29.40167322,-94.90469073,2020-01-31,0
Texas,Garza,84048169,48169.0,33.17969345,-101.2984114,2020-01-31,0
Texas,Gillespie,84048171,48171.0,30.31824095,-98.94676915,2020-01-31,0
Texas,Glasscock,84048173,48173.0,31.86942909,-101.5207776,2020-01-31,0
Texas,Goliad,84048175,48175.0,28.65696592,-97.42760647,2020-01-31,0
Texas,Gonzales,84048177,48177.0,29.45634206,-97.49424032,2020-01-31,0
Texas,Gray,84048179,48179.0,35.40081878,-100.8129222,2020-01-31,0
Texas,Grayson,84048181,48181.0,33.62744998,-96.67753461,2020-01-31,0
Texas,Gregg,84048183,48183.0,32.47940482,-94.81591935,2020-01-31,0
Texas,Grimes,84048185,48185.0,30.54579585,-95.98902499,2020-01-31,0
Texas,Guadalupe,84048187,48187.0,29.58165339,-97.94786822,2020-01-31,0
Texas,Hale,84048189,48189.0,34.07044901,-101.82681140000001,2020-01-31,0
Texas,Hall,84048191,48191.0,34.5307555,-100.68138520000001,2020-01-31,0
Texas,Hamilton,84048193,48193.0,31.70470573,-98.11083887,2020-01-31,0
Texas,Hansford,84048195,48195.0,36.27743284,-101.3545796,2020-01-31,0
Texas,Hardeman,84048197,48197.0,34.28944521,-99.74632408,2020-01-31,0
Texas,Hardin,84048199,48199.0,30.33364686,-94.38931817,2020-01-31,0
Texas,Harris,84048201,48201.0,29.85864939,-95.39339521,2020-01-31,0
Texas,Harrison,84048203,48203.0,32.54935988,-94.36934071,2020-01-31,0
Texas,Hartley,84048205,48205.0,35.84008013,-102.6029022,2020-01-31,0
Texas,Haskell,84048207,48207.0,33.17823584,-99.73037358,2020-01-31,0
Texas,Hays,84048209,48209.0,30.05669873,-98.02944344,2020-01-31,0
Texas,Hemphill,84048211,48211.0,35.83764858,-100.2703577,2020-01-31,0
Texas,Henderson,84048213,48213.0,32.21128872,-95.85846587,2020-01-31,0
Texas,Hidalgo,84048215,48215.0,26.39418217,-98.18299696,2020-01-31,0
Texas,Hill,84048217,48217.0,31.99045053,-97.13423143,2020-01-31,0
Texas,Hockley,84048219,48219.0,33.60771256,-102.3431676,2020-01-31,0
Texas,Hood,84048221,48221.0,32.42990927,-97.83242024,2020-01-31,0
Texas,Hopkins,84048223,48223.0,33.14875072,-95.56351139,2020-01-31,0
Texas,Houston,84048225,48225.0,31.31925973,-95.42226208,2020-01-31,0
Texas,Howard,84048227,48227.0,32.30621324,-101.4356444,2020-01-31,0
Texas,Hudspeth,84048229,48229.0,31.45628381,-105.388178,2020-01-31,0
Texas,Hunt,84048231,48231.0,33.12351514,-96.08551032,2020-01-31,0
Texas,Hutchinson,84048233,48233.0,35.84006574,-101.3546643,2020-01-31,0
Texas,Irion,84048235,48235.0,31.30375559,-100.982439,2020-01-31,0
Texas,Jack,84048237,48237.0,33.23377248,-98.17283469,2020-01-31,0
Texas,Jackson,84048239,48239.0,28.95472367,-96.57749563,2020-01-31,0
Texas,Jasper,84048241,48241.0,30.74685667,-94.02667579,2020-01-31,0
Texas,Jeff Davis,84048243,48243.0,30.71490589,-104.1399973,2020-01-31,0
Texas,Jefferson,84048245,48245.0,29.8832777,-94.16434171,2020-01-31,0
Texas,Jim Hogg,84048247,48247.0,27.04453923,-98.69681870000001,2020-01-31,0
Texas,Jim Wells,84048249,48249.0,27.73103938,-98.0904705,2020-01-31,0
Texas,Johnson,84048251,48251.0,32.37877812,-97.36615819,2020-01-31,0
Texas,Jones,84048253,48253.0,32.73997145,-99.87861576,2020-01-31,0
Texas,Karnes,84048255,48255.0,28.90705334,-97.85960149,2020-01-31,0
Texas,Kaufman,84048257,48257.0,32.599141700000004,-96.28734728,2020-01-31,0
Texas,Kendall,84048259,48259.0,29.94414155,-98.7113588,2020-01-31,0
Texas,Kenedy,84048261,48261.0,26.92601662,-97.66413984,2020-01-31,0
Texas,Kent,84048263,48263.0,33.18104136,-100.7780939,2020-01-31,0
Texas,Kerr,84048265,48265.0,30.06040006,-99.34930144,2020-01-31,0
Texas,Kimble,84048267,48267.0,30.48678918,-99.74856473,2020-01-31,0
Texas,King,84048269,48269.0,33.61643847,-100.2558057,2020-01-31,0
Texas,Kinney,84048271,48271.0,29.34967888,-100.41866379999999,2020-01-31,0
Texas,Kleberg,84048273,48273.0,27.42435506,-97.69894948,2020-01-31,0
Texas,Knox,84048275,48275.0,33.60519951,-99.74229059999999,2020-01-31,0
Texas,La Salle,84048283,48283.0,28.34453111,-99.09908775,2020-01-31,0
Texas,Lamar,84048277,48277.0,33.66981763,-95.57404777,2020-01-31,0
Texas,Lamb,84048279,48279.0,34.06859623,-102.35162890000001,2020-01-31,0
Texas,Lampasas,84048281,48281.0,31.19531316,-98.24206613,2020-01-31,0
Texas,Lavaca,84048285,48285.0,29.38508402,-96.93186692,2020-01-31,0
Texas,Lee,84048287,48287.0,30.31120597,-96.97045773,2020-01-31,0
Texas,Leon,84048289,48289.0,31.29872538,-95.9936328,2020-01-31,0
Texas,Liberty,84048291,48291.0,30.15152688,-94.81205615,2020-01-31,0
Texas,Limestone,84048293,48293.0,31.5454767,-96.58095444,2020-01-31,0
Texas,Lipscomb,84048295,48295.0,36.27783108,-100.27331509999999,2020-01-31,0
Texas,Live Oak,84048297,48297.0,28.35101362,-98.1246786,2020-01-31,0
Texas,Llano,84048299,48299.0,30.70645047,-98.68475262,2020-01-31,0
Texas,Loving,84048301,48301.0,31.84947612,-103.5818571,2020-01-31,0
Texas,Lubbock,84048303,48303.0,33.61008596,-101.82047890000001,2020-01-31,0
Texas,Lynn,84048305,48305.0,33.17657705,-101.8162849,2020-01-31,0
Texas,Madison,84048313,48313.0,30.96694679,-95.93003775,2020-01-31,0
Texas,Marion,84048315,48315.0,32.79868409,-94.35661230000001,2020-01-31,0
Texas,Martin,84048317,48317.0,32.30600051,-101.9513518,2020-01-31,0
Texas,Mason,84048319,48319.0,30.71780434,-99.22629416,2020-01-31,0
Texas,Matagorda,84048321,48321.0,28.81955746,-96.01230294,2020-01-31,0
Texas,Maverick,84048323,48323.0,28.7429195,-100.3157686,2020-01-31,0
Texas,McCulloch,84048307,48307.0,31.1925468,-99.34682807,2020-01-31,0
Texas,McLennan,84048309,48309.0,31.55255453,-97.20217694,2020-01-31,0
Texas,McMullen,84048311,48311.0,28.35251708,-98.56769164,2020-01-31,0
Texas,Medina,84048325,48325.0,29.355730100000002,-99.11030298,2020-01-31,0
Texas,Menard,84048327,48327.0,30.88990665,-99.82047940000001,2020-01-31,0
Texas,Midland,84048329,48329.0,31.86904128,-102.03156820000001,2020-01-31,0
Texas,Milam,84048331,48331.0,30.78581830000001,-96.97718698,2020-01-31,0
Texas,Mills,84048333,48333.0,31.49557106,-98.59272068,2020-01-31,0
Texas,Mitchell,84048335,48335.0,32.30623474,-100.9212058,2020-01-31,0
Texas,Montague,84048337,48337.0,33.67521893,-97.72500958,2020-01-31,0
Texas,Montgomery,84048339,48339.0,30.30079133,-95.50572772,2020-01-31,0
Texas,Moore,84048341,48341.0,35.83769242,-101.8930281,2020-01-31,0
Texas,Morris,84048343,48343.0,33.11304005,-94.73255695,2020-01-31,0
Texas,Motley,84048345,48345.0,34.07408766,-100.77972199999999,2020-01-31,0
Texas,Nacogdoches,84048347,48347.0,31.62017125,-94.61803994,2020-01-31,0
Texas,Navarro,84048349,48349.0,32.04620681,-96.47428766,2020-01-31,0
Texas,Newton,84048351,48351.0,30.78548982,-93.74408813,2020-01-31,0
Texas,Nolan,84048353,48353.0,32.30365282,-100.4060208,2020-01-31,0
Texas,Nueces,84048355,48355.0,27.736286,-97.5433285,2020-01-31,0
Texas,Ochiltree,84048357,48357.0,36.27829105,-100.8158184,2020-01-31,0
Texas,Oldham,84048359,48359.0,35.40425596,-102.6027606,2020-01-31,0
Texas,Orange,84048361,48361.0,30.11879481,-93.89412775,2020-01-31,0
Texas,Out of TX,84080048,80048.0,0.0,0.0,2020-01-31,0
Texas,Palo Pinto,84048363,48363.0,32.75310985,-98.31319001,2020-01-31,0
Texas,Panola,84048365,48365.0,32.163959600000005,-94.30552481,2020-01-31,0
Texas,Parker,84048367,48367.0,32.77757172,-97.80500621,2020-01-31,0
Texas,Parmer,84048369,48369.0,34.52993409,-102.78446679999999,2020-01-31,0
Texas,Pecos,84048371,48371.0,30.78097267,-102.72412609999999,2020-01-31,0
Texas,Polk,84048373,48373.0,30.79472531,-94.82766240000001,2020-01-31,0
Texas,Potter,84048375,48375.0,35.40133773,-101.893964,2020-01-31,0
Texas,Presidio,84048377,48377.0,29.99954402,-104.24080790000001,2020-01-31,0
Texas,Rains,84048379,48379.0,32.87109387,-95.79232691,2020-01-31,0
Texas,Randall,84048381,48381.0,34.96585996,-101.8971322,2020-01-31,0
Texas,Reagan,84048383,48383.0,31.36607041,-101.52326590000001,2020-01-31,0
Texas,Real,84048385,48385.0,29.83321503,-99.82018052,2020-01-31,0
Texas,Red River,84048387,48387.0,33.61886692,-95.04841765,2020-01-31,0
Texas,Reeves,84048389,48389.0,31.32323325,-103.69038959999999,2020-01-31,0
Texas,Refugio,84048391,48391.0,28.323897600000002,-97.15766311,2020-01-31,0
Texas,Roberts,84048393,48393.0,35.83809685,-100.813175,2020-01-31,0
Texas,Robertson,84048395,48395.0,31.02539637,-96.51272246,2020-01-31,0
Texas,Rockwall,84048397,48397.0,32.89779518,-96.40771592,2020-01-31,0
Texas,Runnels,84048399,48399.0,31.8314342,-99.97616148,2020-01-31,0
Texas,Rusk,84048401,48401.0,32.10773545,-94.76176432,2020-01-31,0
Texas,Sabine,84048403,48403.0,31.34318809,-93.85440451,2020-01-31,0
Texas,San Augustine,84048405,48405.0,31.39457611,-94.17000399,2020-01-31,0
Texas,San Jacinto,84048407,48407.0,30.57933681,-95.16260304,2020-01-31,0
Texas,San Patricio,84048409,48409.0,28.00880118,-97.51763891,2020-01-31,0
Texas,San Saba,84048411,48411.0,31.1577796,-98.81758731,2020-01-31,0
Texas,Schleicher,84048413,48413.0,30.89740592,-100.5384842,2020-01-31,0
Texas,Scurry,84048415,48415.0,32.74613808,-100.91626640000001,2020-01-31,0
Texas,Shackelford,84048417,48417.0,32.73587756,-99.35401337,2020-01-31,0
Texas,Shelby,84048419,48419.0,31.79211404,-94.14550696,2020-01-31,0
Texas,Sherman,84048421,48421.0,36.27751473,-101.8933156,2020-01-31,0
Texas,Smith,84048423,48423.0,32.37474036,-95.27175679999999,2020-01-31,0
Texas,Somervell,84048425,48425.0,32.22236802,-97.77403489,2020-01-31,0
Texas,Starr,84048427,48427.0,26.56150059,-98.73892358,2020-01-31,0
Texas,Stephens,84048429,48429.0,32.73553157,-98.83631615,2020-01-31,0
Texas,Sterling,84048431,48431.0,31.82781912,-101.05007459999999,2020-01-31,0
Texas,Stonewall,84048433,48433.0,33.17906744,-100.25384009999999,2020-01-31,0
Texas,Sutton,84048435,48435.0,30.49856623,-100.5382014,2020-01-31,0
Texas,Swisher,84048437,48437.0,34.53028891,-101.73491740000001,2020-01-31,0
Texas,Tarrant,84048439,48439.0,32.77143818,-97.29101614,2020-01-31,0
Texas,Taylor,84048441,48441.0,32.30163422,-99.89007449,2020-01-31,0
Texas,Terrell,84048443,48443.0,30.22429013,-102.0766732,2020-01-31,0
Texas,Terry,84048445,48445.0,33.17402785,-102.3354521,2020-01-31,0
Texas,Throckmorton,84048447,48447.0,33.17751417,-99.21226795,2020-01-31,0
Texas,Titus,84048449,48449.0,33.21339719,-94.96797273,2020-01-31,0
Texas,Tom Green,84048451,48451.0,31.40464436,-100.46244300000001,2020-01-31,0
Texas,Travis,84048453,48453.0,30.33432034,-97.78535620000001,2020-01-31,0
Texas,Trinity,84048455,48455.0,31.0879489,-95.1367187,2020-01-31,0
Texas,Tyler,84048457,48457.0,30.77031716,-94.37690895,2020-01-31,0
Texas,Unassigned,84090048,90048.0,0.0,0.0,2020-01-31,0
Texas,Upshur,84048459,48459.0,32.73706798,-94.93999853,2020-01-31,0
Texas,Upton,84048461,48461.0,31.36868194,-102.0423217,2020-01-31,0
Texas,Uvalde,84048463,48463.0,29.35739637,-99.76229172,2020-01-31,0
Texas,Val Verde,84048465,48465.0,29.89149232,-101.1525205,2020-01-31,0
Texas,Van Zandt,84048467,48467.0,32.56483801,-95.83766469,2020-01-31,0
Texas,Victoria,84048469,48469.0,28.79780988,-96.96813006,2020-01-31,0
Texas,Walker,84048471,48471.0,30.73872995,-95.57440968,2020-01-31,0
Texas,Waller,84048473,48473.0,30.01058447,-95.99011759,2020-01-31,0
Texas,Ward,84048475,48475.0,31.50999644,-103.09279090000001,2020-01-31,0
Texas,Washington,84048477,48477.0,30.21498498,-96.40946246,2020-01-31,0
Texas,Webb,84048479,48479.0,27.7610369,-99.33237355,2020-01-31,0
Texas,Wharton,84048481,48481.0,29.27765923,-96.22319248,2020-01-31,0
Texas,Wheeler,84048483,48483.0,35.40114335,-100.26995140000001,2020-01-31,0
Texas,Wichita,84048485,48485.0,33.98842886,-98.70410340000001,2020-01-31,0
Texas,Wilbarger,84048487,48487.0,34.07945812,-99.24178437,2020-01-31,0
Texas,Willacy,84048489,48489.0,26.47411727,-97.61535848,2020-01-31,0
Texas,Williamson,84048491,48491.0,30.64655664,-97.60048540000001,2020-01-31,0
Texas,Wilson,84048493,48493.0,29.1732598,-98.08693082,2020-01-31,0
Texas,Winkler,84048495,48495.0,31.85008651,-103.04851629999999,2020-01-31,0
Texas,Wise,84048497,48497.0,33.21570665,-97.65460265,2020-01-31,0
Texas,Wood,84048499,48499.0,32.78722382,-95.38236368,2020-01-31,0
Texas,Yoakum,84048501,48501.0,33.17320212,-102.82764329999999,2020-01-31,0
Texas,Young,84048503,48503.0,33.17659707,-98.68790885,2020-01-31,0
Texas,Zapata,84048505,48505.0,27.00156391,-99.16987152,2020-01-31,0
Texas,Zavala,84048507,48507.0,28.86617238,-99.76050829,2020-01-31,0
Virginia,Accomack,84051001,51001.0,37.76707161,-75.63234615,2020-01-31,0
Virginia,Albemarle,84051003,51003.0,38.02080697,-78.55481085,2020-01-31,0
Virginia,Alexandria,84051510,51510.0,38.814003,-77.08183073,2020-01-31,0
Virginia,Alleghany,84051005,51005.0,37.78636074,-80.00222498,2020-01-31,0
Virginia,Amelia,84051007,51007.0,37.34081025,-77.98584649,2020-01-31,0
Virginia,Amherst,84051009,51009.0,37.60308293,-79.14548696,2020-01-31,0
Virginia,Appomattox,84051011,51011.0,37.37569884,-78.81340003,2020-01-31,0
Virginia,Arlington,84051013,51013.0,38.8767675,-77.10139853,2020-01-31,0
Virginia,Augusta,84051015,51015.0,38.16404586,-79.12461614,2020-01-31,0
Virginia,Bath,84051017,51017.0,38.05852573,-79.73912095,2020-01-31,0
Virginia,Bedford,84051019,51019.0,37.3080028,-79.5281964,2020-01-31,0
Virginia,Bland,84051021,51021.0,37.13128068,-81.13599391,2020-01-31,0
Virginia,Botetourt,84051023,51023.0,37.55531756,-79.80982182,2020-01-31,0
Virginia,Bristol,84051520,51520.0,36.616302399999995,-82.16359122,2020-01-31,0
Virginia,Brunswick,84051025,51025.0,36.76366949,-77.8593436,2020-01-31,0
Virginia,Buchanan,84051027,51027.0,37.26818323,-82.03749726,2020-01-31,0
Virginia,Buckingham,84051029,51029.0,37.57242268,-78.52518834,2020-01-31,0
Virginia,Buena Vista,84051530,51530.0,37.73484642,-79.35296097,2020-01-31,0
Virginia,Campbell,84051031,51031.0,37.20553386,-79.09678609,2020-01-31,0
Virginia,Caroline,84051033,51033.0,38.02679129,-77.34901405,2020-01-31,0
Virginia,Carroll,84051035,51035.0,36.73066666,-80.73455942,2020-01-31,0
Virginia,Charles City,84051036,51036.0,37.35358063,-77.05634116,2020-01-31,0
Virginia,Charlotte,84051037,51037.0,37.01909701,-78.66314092,2020-01-31,0
Virginia,Charlottesville,84051540,51540.0,38.03527919,-78.48569588,2020-01-31,0
Virginia,Chesapeake,84051550,51550.0,36.67670048,-76.30545744,2020-01-31,0
Virginia,Chesterfield,84051041,51041.0,37.37373208,-77.58680140000001,2020-01-31,0
Virginia,Clarke,84051043,51043.0,39.11271747,-77.99199425,2020-01-31,0
Virginia,Colonial Heights,84051570,51570.0,37.26420587,-77.39609676,2020-01-31,0
Virginia,Covington,84051580,51580.0,37.7824656,-79.98631446,2020-01-31,0
Virginia,Craig,84051045,51045.0,37.48133648,-80.21072274,2020-01-31,0
Virginia,Culpeper,84051047,51047.0,38.48199985,-77.95630870000002,2020-01-31,0
Virginia,Cumberland,84051049,51049.0,37.51328851,-78.24398086,2020-01-31,0
Virginia,Danville,84051590,51590.0,36.58022376,-79.40395668,2020-01-31,0
Virginia,Dickenson,84051051,51051.0,37.12560977,-82.35124171,2020-01-31,0
Virginia,Dinwiddie,84051053,51053.0,37.07544585,-77.63451754,2020-01-31,0
Virginia,Emporia,84051595,51595.0,36.69455571,-77.53406129,2020-01-31,0
Virginia,Essex,84051057,51057.0,37.93357639,-76.94230311,2020-01-31,0
Virginia,Fairfax,84051059,51059.0,38.83677558,-77.27565836,2020-01-31,0
Virginia,Fairfax City,84051600,51600.0,38.85157547,-77.29779640000002,2020-01-31,0
Virginia,Falls Church,84051610,51610.0,38.88485255,-77.17560759,2020-01-31,0
Virginia,Fauquier,84051061,51061.0,38.73564842,-77.80647472,2020-01-31,0
Virginia,Floyd,84051063,51063.0,36.9302126,-80.36738849,2020-01-31,0
Virginia,Fluvanna,84051065,51065.0,37.84157909,-78.27715475,2020-01-31,0
Virginia,Franklin,84051067,51067.0,36.99536167,-79.88023649,2020-01-31,0
Virginia,Franklin City,84051620,51620.0,36.6831435,-76.93859681,2020-01-31,0
Virginia,Frederick,84051069,51069.0,39.20172582,-78.25974949,2020-01-31,0
Virginia,Fredericksburg,84051630,51630.0,38.2977863,-77.4922454,2020-01-31,0
Virginia,Galax,84051640,51640.0,36.66601852,-80.91703124,2020-01-31,0
Virginia,Giles,84051071,51071.0,37.31234791,-80.70636931,2020-01-31,0
Virginia,Gloucester,84051073,51073.0,37.40809042,-76.53524337,2020-01-31,0
Virginia,Goochland,84051075,51075.0,37.71714806,-77.90381514,2020-01-31,0
Virginia,Grayson,84051077,51077.0,36.65677234,-81.23215889,2020-01-31,0
Virginia,Greene,84051079,51079.0,38.29545894,-78.46525378,2020-01-31,0
Virginia,Greensville,84051081,51081.0,36.67878901,-77.56351439,2020-01-31,0
Virginia,Halifax,84051083,51083.0,36.76654925,-78.93512622,2020-01-31,0
Virginia,Hampton,84051650,51650.0,37.03513786,-76.35879121,2020-01-31,0
Virginia,Hanover,84051085,51085.0,37.7583355,-77.49464673,2020-01-31,0
Virginia,Harrisonburg,84051660,51660.0,38.43542574,-78.87536254,2020-01-31,0
Virginia,Henrico,84051087,51087.0,37.53460572,-77.39326555,2020-01-31,0
Virginia,Henry,84051089,51089.0,36.68542395,-79.87634026,2020-01-31,0
Virginia,Highland,84051091,51091.0,38.35799465,-79.56124594,2020-01-31,0
Virginia,Hopewell,84051670,51670.0,37.29186313,-77.29754684,2020-01-31,0
Virginia,Isle of Wight,84051093,51093.0,36.90579348,-76.70842863,2020-01-31,0
Virginia,James City,84051095,51095.0,37.31156958,-76.76950618,2020-01-31,0
Virginia,King George,84051099,51099.0,38.26818502,-77.15852768,2020-01-31,0
Virginia,King William,84051101,51101.0,37.70965316,-77.09384941,2020-01-31,0
Virginia,King and Queen,84051097,51097.0,37.71044922,-76.88689628,2020-01-31,0
Virginia,Lancaster,84051103,51103.0,37.71889653,-76.46400482,2020-01-31,0
Virginia,Lee,84051105,51105.0,36.70586667,-83.12606515,2020-01-31,0
Virginia,Lexington,84051678,51678.0,37.78258621,-79.44262866,2020-01-31,0
Virginia,Loudoun,84051107,51107.0,39.08990083,-77.63481877,2020-01-31,0
Virginia,Louisa,84051109,51109.0,37.97850256,-77.96274807,2020-01-31,0
Virginia,Lunenburg,84051111,51111.0,36.94618528,-78.24133319,2020-01-31,0
Virginia,Lynchburg,84051680,51680.0,37.40021399,-79.19888138,2020-01-31,0
Virginia,Madison,84051113,51113.0,38.41531222,-78.28220331,2020-01-31,0
Virginia,Manassas,84051683,51683.0,38.7464321,-77.48509905,2020-01-31,0
Virginia,Manassas Park,84051685,51685.0,38.77058531,-77.44399307,2020-01-31,0
Virginia,Martinsville,84051690,51690.0,36.68212094,-79.86352771,2020-01-31,0
Virginia,Mathews,84051115,51115.0,37.44164146,-76.34098896,2020-01-31,0
Virginia,Mecklenburg,84051117,51117.0,36.67882005,-78.36131056,2020-01-31,0
Virginia,Middlesex,84051119,51119.0,37.63191998,-76.55064617,2020-01-31,0
Virginia,Montgomery,84051121,51121.0,37.17746986,-80.37868691,2020-01-31,0
Virginia,Nelson,84051125,51125.0,37.78790447,-78.88498513,2020-01-31,0
Virginia,New Kent,84051127,51127.0,37.50694406,-76.99828634,2020-01-31,0
Virginia,Newport News,84051700,51700.0,37.08166899,-76.51754109,2020-01-31,0
Virginia,Norfolk,84051710,51710.0,36.89934014,-76.26420872,2020-01-31,0
Virginia,Northampton,84051131,51131.0,37.34062933,-75.87751591,2020-01-31,0
Virginia,Northumberland,84051133,51133.0,37.89202088,-76.41949732,2020-01-31,0
Virginia,Norton,84051720,51720.0,36.93357076,-82.62750411,2020-01-31,0
Virginia,Nottoway,84051135,51135.0,37.1435975,-78.05065922,2020-01-31,0
Virginia,Orange,84051137,51137.0,38.24530219,-78.01560400000002,2020-01-31,0
Virginia,Out of VA,84080051,80051.0,0.0,0.0,2020-01-31,0
Virginia,Page,84051139,51139.0,38.61807452,-78.48797204,2020-01-31,0
Virginia,Patrick,84051141,51141.0,36.680163799999995,-80.2865648,2020-01-31,0
Virginia,Petersburg,84051730,51730.0,37.20530399,-77.39368102,2020-01-31,0
Virginia,Pittsylvania,84051143,51143.0,36.81980341,-79.39731264,2020-01-31,0
Virginia,Poquoson,84051735,51735.0,37.14259351,-76.35798148,2020-01-31,0
Virginia,Portsmouth,84051740,51740.0,36.85914825,-76.35971629,2020-01-31,0
Virginia,Powhatan,84051145,51145.0,37.55016038,-77.91267882,2020-01-31,0
Virginia,Prince Edward,84051147,51147.0,37.22554789,-78.43597949,2020-01-31,0
Virginia,Prince George,84051149,51149.0,37.18497668,-77.22922187,2020-01-31,0
Virginia,Prince William,84051153,51153.0,38.70916224,-77.48713689,2020-01-31,0
Virginia,Pulaski,84051155,51155.0,37.06474963,-80.71229738,2020-01-31,0
Virginia,Radford,84051750,51750.0,37.12222899,-80.56027320000003,2020-01-31,0
Virginia,Rappahannock,84051157,51157.0,38.68295619,-78.15826963,2020-01-31,0
Virginia,Richmond,84051159,51159.0,37.937575,-76.72920628,2020-01-31,0
Virginia,Richmond City,84051760,51760.0,37.53255773,-77.47966921,2020-01-31,0
Virginia,Roanoke,84051161,51161.0,37.26865804,-80.06396753,2020-01-31,0
Virginia,Roanoke City,84051770,51770.0,37.27791025,-79.96189766,2020-01-31,0
Virginia,Rockbridge,84051163,51163.0,37.81204314,-79.44605905,2020-01-31,0
Virginia,Rockingham,84051165,51165.0,38.51006137,-78.87260325,2020-01-31,0
Virginia,Russell,84051167,51167.0,36.93028320000001,-82.10095486,2020-01-31,0
Virginia,Salem,84051775,51775.0,37.2836193,-80.06219455,2020-01-31,0
Virginia,Scott,84051169,51169.0,36.71466456,-82.60171704,2020-01-31,0
Virginia,Shenandoah,84051171,51171.0,38.85905135,-78.56813762,2020-01-31,0
Virginia,Smyth,84051173,51173.0,36.84455636,-81.53344948,2020-01-31,0
Virginia,Southampton,84051175,51175.0,36.72231125,-77.10642712,2020-01-31,0
Virginia,Spotsylvania,84051177,51177.0,38.18574462,-77.655399,2020-01-31,0
Virginia,Stafford,84051179,51179.0,38.41758738,-77.45917053,2020-01-31,0
Virginia,Staunton,84051790,51790.0,38.15965544,-79.05979937,2020-01-31,0
Virginia,Suffolk,84051800,51800.0,36.70155394,-76.63603554,2020-01-31,0
Virginia,Surry,84051181,51181.0,37.11781893,-76.88450012,2020-01-31,0
Virginia,Sussex,84051183,51183.0,36.92432914,-77.25791182,2020-01-31,0
Virginia,Tazewell,84051185,51185.0,37.12191123,-81.56685568,2020-01-31,0
Virginia,Unassigned,84090051,90051.0,0.0,0.0,2020-01-31,0
Virginia,Virginia Beach,84051810,51810.0,36.73285734,-76.04566934,2020-01-31,0
Virginia,Warren,84051187,51187.0,38.90847745,-78.20280433,2020-01-31,0
Virginia,Washington,84051191,51191.0,36.72341572,-81.95666289,2020-01-31,0
Virginia,Waynesboro,84051820,51820.0,38.06451466,-78.90293905,2020-01-31,0
Virginia,Westmoreland,84051193,51193.0,38.11021557,-76.80213247,2020-01-31,0
Virginia,Williamsburg,84051830,51830.0,37.28131268,-76.70905141,2020-01-31,0
Virginia,Winchester,84051840,51840.0,39.17054517,-78.17325058,2020-01-31,0
Virginia,Wise,84051195,51195.0,36.9746148,-82.62410519,2020-01-31,0
Virginia,Wythe,84051197,51197.0,36.91582035,-81.07834059,2020-01-31,0
Virginia,York,84051199,51199.0,37.24374789,-76.54412815,2020-01-31,0
Washington,Adams,84053001,53001.0,46.98299757,-118.56017340000001,2020-01-31,0
Washington,Asotin,84053003,53003.0,46.18894415,-117.2022851,2020-01-31,0
Washington,Benton,84053005,53005.0,46.23946995,-119.51208340000001,2020-01-31,0
Washington,Chelan,84053007,53007.0,47.87046092,-120.6173956,2020-01-31,0
Washington,Clallam,84053009,53009.0,48.04754642,-123.92263190000001,2020-01-31,0
Washington,Clark,84053011,53011.0,45.77568046,-122.48292040000001,2020-01-31,0
Washington,Columbia,84053013,53013.0,46.29442881,-117.9051983,2020-01-31,0
Washington,Cowlitz,84053015,53015.0,46.19074721,-122.6782231,2020-01-31,0
Washington,Douglas,84053017,53017.0,47.7361335,-119.69293700000001,2020-01-31,0
Washington,Ferry,84053019,53019.0,48.471143100000006,-118.5154041,2020-01-31,0
Washington,Franklin,84053021,53021.0,46.53351425,-118.9018212,2020-01-31,0
Washington,Garfield,84053023,53023.0,46.43197502,-117.54540320000001,2020-01-31,0
Washington,Grant,84053025,53025.0,47.20753737,-119.4500749,2020-01-31,0
Washington,Grays Harbor,84053027,53027.0,47.14003705,-123.7820567,2020-01-31,0
Washington,Island,84053029,53029.0,48.14713305,-122.5216407,2020-01-31,0
Washington,Jefferson,84053031,53031.0,47.75003077,-123.56097040000002,2020-01-31,0
Washington,King,84053033,53033.0,47.49137892,-121.8346131,2020-01-31,0
Washington,Kitsap,84053035,53035.0,47.63479026,-122.6436061,2020-01-31,0
Washington,Kittitas,84053037,53037.0,47.12521214,-120.67943899999999,2020-01-31,0
Washington,Klickitat,84053039,53039.0,45.87325839,-120.7913598,2020-01-31,0
Washington,Lewis,84053041,53041.0,46.57756476,-122.39257690000001,2020-01-31,0
Washington,Lincoln,84053043,53043.0,47.57705241,-118.41943880000001,2020-01-31,0
Washington,Mason,84053045,53045.0,47.35007586,-123.1863685,2020-01-31,0
Washington,Okanogan,84053047,53047.0,48.54855019,-119.73872240000001,2020-01-31,0
Washington,Out of WA,84080053,80053.0,0.0,0.0,2020-01-31,0
Washington,Pacific,84053049,53049.0,46.55418369,-123.7285716,2020-01-31,0
Washington,Pend Oreille,84053051,53051.0,48.53234021,-117.2741804,2020-01-31,0
Washington,Pierce,84053053,53053.0,47.03892768,-122.14059579999999,2020-01-31,0
Washington,San Juan,84053055,53055.0,48.60182783,-122.96745,2020-01-31,0
Washington,Skagit,84053057,53057.0,48.48171488,-121.766131,2020-01-31,0
Washington,Skamania,84053059,53059.0,46.02408726,-121.91644029999999,2020-01-31,0
Washington,Snohomish,84053061,53061.0,48.04615983,-121.7170703,2020-01-31,0
Washington,Spokane,84053063,53063.0,47.62113146,-117.4046494,2020-01-31,0
Washington,Stevens,84053065,53065.0,48.40035475,-117.8542701,2020-01-31,0
Washington,Thurston,84053067,53067.0,46.9291895,-122.82906559999999,2020-01-31,0
Washington,Unassigned,84090053,90053.0,0.0,0.0,2020-01-31,0
Washington,Wahkiakum,84053069,53069.0,46.29180039999999,-123.4250831,2020-01-31,0
Washington,Walla Walla,84053071,53071.0,46.23040051,-118.4775539,2020-01-31,0
Washington,Whatcom,84053073,53073.0,48.82227976,-121.74900179999999,2020-01-31,0
Washington,Whitman,84053075,53075.0,46.90022523,-117.52417630000001,2020-01-31,0
Washington,Yakima,84053077,53077.0,46.45738486,-120.73801259999999,2020-01-31,0
California,Alameda,84006001,6001.0,37.64629437,-121.8929271,2020-02-29,0
California,Alpine,84006003,6003.0,38.59678594,-119.82235940000001,2020-02-29,0
California,Amador,84006005,6005.0,38.44583082,-120.65696000000001,2020-02-29,0
California,Butte,84006007,6007.0,39.66727762,-121.6005252,2020-02-29,0
California,Calaveras,84006009,6009.0,38.20537103,-120.55291299999999,2020-02-29,0
California,Colusa,84006011,6011.0,39.17881957,-122.2331726,2020-02-29,0
California,Contra Costa,84006013,6013.0,37.91923498,-121.9289527,2020-02-29,0
California,Del Norte,84006015,6015.0,41.74228275,-123.89740630000001,2020-02-29,0
California,El Dorado,84006017,6017.0,38.77965956,-120.5233166,2020-02-29,0
California,Fresno,84006019,6019.0,36.75733899,-119.6466953,2020-02-29,0
California,Glenn,84006021,6021.0,39.59875897,-122.3938452,2020-02-29,0
California,Humboldt,84006023,6023.0,40.69923009,-123.876044,2020-02-29,0
California,Imperial,84006025,6025.0,33.0393082,-115.36690420000001,2020-02-29,0
California,Inyo,84006027,6027.0,36.51112084,-117.41119779999998,2020-02-29,0
California,Kern,84006029,6029.0,35.34329425,-118.72777959999999,2020-02-29,0
California,Kings,84006031,6031.0,36.07409056,-119.8159973,2020-02-29,1
California,Lake,84006033,6033.0,39.10124298,-122.75362439999999,2020-02-29,0
California,Lassen,84006035,6035.0,40.67311306,-120.59350990000002,2020-02-29,0
California,Los Angeles,84006037,6037.0,34.30828379,-118.22824109999999,2020-02-29,0
California,Madera,84006039,6039.0,37.21513971,-119.76655890000002,2020-02-29,0
California,Marin,84006041,6041.0,38.07122463,-122.72106310000001,2020-02-29,0
California,Mariposa,84006043,6043.0,37.57978556,-119.9073334,2020-02-29,0
California,Mendocino,84006045,6045.0,39.4381191,-123.39113130000001,2020-02-29,0
California,Merced,84006047,6047.0,37.18922369,-120.72090349999999,2020-02-29,0
California,Modoc,84006049,6049.0,41.58965602,-120.7244817,2020-02-29,0
California,Mono,84006051,6051.0,37.93899289,-118.8872409,2020-02-29,0
California,Monterey,84006053,6053.0,36.21862405,-121.24133970000001,2020-02-29,0
California,Napa,84006055,6055.0,38.50735751,-122.33283899999999,2020-02-29,0
California,Nevada,84006057,6057.0,39.30394768,-120.76272809999999,2020-02-29,1
California,Orange,84006059,6059.0,33.70147516,-117.76459979999998,2020-02-29,0
California,Out of CA,84080006,80006.0,0.0,0.0,2020-02-29,0
California,Placer,84006061,6061.0,39.06167234,-120.72405690000001,2020-02-29,0
California,Plumas,84006063,6063.0,40.00355989,-120.8395236,2020-02-29,0
California,Riverside,84006065,6065.0,33.74314981,-115.9933578,2020-02-29,1
California,Sacramento,84006067,6067.0,38.45106826,-121.34253740000001,2020-02-29,0
California,San Benito,84006069,6069.0,36.60308176,-121.069975,2020-02-29,0
California,San Bernardino,84006071,6071.0,34.84060306,-116.1774685,2020-02-29,0
California,San Diego,84006073,6073.0,33.03484597,-116.73653259999999,2020-02-29,2
California,San Francisco,84006075,6075.0,37.75215114,-122.43856720000001,2020-02-29,0
California,San Joaquin,84006077,6077.0,37.93433732,-121.2730061,2020-02-29,3
California,San Luis Obispo,84006079,6079.0,35.38822029,-120.4039028,2020-02-29,0
California,San Mateo,84006081,6081.0,37.422880799999994,-122.32755459999998,2020-02-29,0
California,Santa Barbara,84006083,6083.0,34.65329488,-120.0188492,2020-02-29,0
California,Santa Clara,84006085,6085.0,37.23104908,-121.6970462,2020-02-29,0
California,Santa Cruz,84006087,6087.0,37.05580291,-122.0066524,2020-02-29,0
California,Shasta,84006089,6089.0,40.76391419,-122.0396884,2020-02-29,0
California,Sierra,84006091,6091.0,39.57713498,-120.52007009999998,2020-02-29,0
California,Siskiyou,84006093,6093.0,41.59198861,-122.54074340000001,2020-02-29,0
California,Solano,84006095,6095.0,38.26827353,-121.9357113,2020-02-29,0
California,Sonoma,84006097,6097.0,38.52746429,-122.88625060000001,2020-02-29,0
California,Stanislaus,84006099,6099.0,37.55862499,-120.9970722,2020-02-29,2
California,Sutter,84006101,6101.0,39.03417539,-121.6945899,2020-02-29,0
California,Tehama,84006103,6103.0,40.12570935,-122.23701709999999,2020-02-29,0
California,Trinity,84006105,6105.0,40.64917670000001,-123.114713,2020-02-29,0
California,Tulare,84006107,6107.0,36.22026558,-118.8020203,2020-02-29,0
California,Tuolumne,84006109,6109.0,38.02644018,-119.95250929999999,2020-02-29,0
California,Unassigned,84090006,90006.0,0.0,0.0,2020-02-29,0
California,Ventura,84006111,6111.0,34.44465746,-119.09106129999999,2020-02-29,0
California,Yolo,84006113,6113.0,38.68278902,-121.90182879999999,2020-02-29,0
California,Yuba,84006115,6115.0,39.26255932,-121.35356440000001,2020-02-29,0
Colorado,Adams,84008001,8001.0,39.87432092,-104.3362578,2020-02-29,0
Colorado,Alamosa,84008003,8003.0,37.57250606,-105.7885451,2020-02-29,0
Colorado,Arapahoe,84008005,8005.0,39.64977461,-104.3353617,2020-02-29,0
Colorado,Archuleta,84008007,8007.0,37.19474156,-107.04768670000001,2020-02-29,0
Colorado,Baca,84008009,8009.0,37.31940883,-102.5603223,2020-02-29,0
Colorado,Bent,84008011,8011.0,37.95474293,-103.0720195,2020-02-29,0
Colorado,Boulder,84008013,8013.0,40.09313619,-105.3546767,2020-02-29,0
Colorado,Broomfield,84008014,8014.0,39.95998787,-105.0566324,2020-02-29,0
Colorado,Chaffee,84008015,8015.0,38.74745778,-106.19265729999998,2020-02-29,0
Colorado,Cheyenne,84008017,8017.0,38.82777431,-102.6032558,2020-02-29,0
Colorado,Clear Creek,84008019,8019.0,39.68864463,-105.6463118,2020-02-29,0
Colorado,Conejos,84008021,8021.0,37.201606,-106.19174879999998,2020-02-29,0
Colorado,Costilla,84008023,8023.0,37.27732493,-105.4276548,2020-02-29,0
Colorado,Crowley,84008025,8025.0,38.32608609,-103.7844965,2020-02-29,0
Colorado,Custer,84008027,8027.0,38.10883162,-105.3683478,2020-02-29,0
Colorado,Delta,84008029,8029.0,38.86246243,-107.86313419999999,2020-02-29,0
Colorado,Denver,84008031,8031.0,39.76018276,-104.87256950000001,2020-02-29,0
Colorado,Dolores,84008033,8033.0,37.75208676,-108.5211585,2020-02-29,0
Colorado,Douglas,84008035,8035.0,39.33133796,-104.930001,2020-02-29,0
Colorado,Eagle,84008037,8037.0,39.62754308,-106.6933637,2020-02-29,0
Colorado,El Paso,84008041,8041.0,38.83240149,-104.5251411,2020-02-29,0
Colorado,Elbert,84008039,8039.0,39.28656773,-104.13587209999999,2020-02-29,0
Colorado,Fremont,84008043,8043.0,38.47362326,-105.43996670000001,2020-02-29,0
Colorado,Garfield,84008045,8045.0,39.59921777,-107.902708,2020-02-29,0
Colorado,Gilpin,84008047,8047.0,39.85646523,-105.5252597,2020-02-29,0
Colorado,Grand,84008049,8049.0,40.10603347,-106.11780420000001,2020-02-29,0
Colorado,Gunnison,84008051,8051.0,38.66611652,-107.0320729,2020-02-29,0
Colorado,Hinsdale,84008053,8053.0,37.82247444,-107.3004345,2020-02-29,0
Colorado,Huerfano,84008055,8055.0,37.68473101,-104.9612585,2020-02-29,0
Colorado,Jackson,84008057,8057.0,40.66593870000001,-106.3408905,2020-02-29,0
Colorado,Jefferson,84008059,8059.0,39.58635604,-105.2517692,2020-02-29,0
Colorado,Kiowa,84008061,8061.0,38.43260896,-102.7392145,2020-02-29,0
Colorado,Kit Carson,84008063,8063.0,39.30497777,-102.60221990000001,2020-02-29,0
Colorado,La Plata,84008067,8067.0,37.28632032,-107.8429014,2020-02-29,0
Colorado,Lake,84008065,8065.0,39.20278823,-106.35556969999999,2020-02-29,0
Colorado,Larimer,84008069,8069.0,40.66671597,-105.4625784,2020-02-29,0
Colorado,Las Animas,84008071,8071.0,37.3153406,-104.03764579999999,2020-02-29,0
Colorado,Lincoln,84008073,8073.0,38.98749519,-103.51366490000001,2020-02-29,0
Colorado,Logan,84008075,8075.0,40.7249637,-103.110817,2020-02-29,0
Colorado,Mesa,84008077,8077.0,39.01787888,-108.469799,2020-02-29,0
Colorado,Mineral,84008079,8079.0,37.66954283,-106.92816979999999,2020-02-29,0
Colorado,Moffat,84008081,8081.0,40.61810999,-108.2070876,2020-02-29,0
Colorado,Montezuma,84008083,8083.0,37.33859579,-108.59588570000001,2020-02-29,0
Colorado,Montrose,84008085,8085.0,38.40214114,-108.26390220000002,2020-02-29,0
Colorado,Morgan,84008087,8087.0,40.26279810000001,-103.8093302,2020-02-29,0
Colorado,Otero,84008089,8089.0,37.9014485,-103.7173385,2020-02-29,0
Colorado,Ouray,84008091,8091.0,38.14717457,-107.7675136,2020-02-29,0
Colorado,Out of CO,84080008,80008.0,0.0,0.0,2020-02-29,0
Colorado,Park,84008093,8093.0,39.120926000000004,-105.7182065,2020-02-29,0
Colorado,Phillips,84008095,8095.0,40.59414277,-102.3577703,2020-02-29,0
Colorado,Pitkin,84008097,8097.0,39.21720112,-106.9310027,2020-02-29,0
Colorado,Prowers,84008099,8099.0,37.95544985,-102.3926052,2020-02-29,0
Colorado,Pueblo,84008101,8101.0,38.17359144,-104.5127437,2020-02-29,0
Colorado,Rio Blanco,84008103,8103.0,39.97913541,-108.2179009,2020-02-29,0
Colorado,Rio Grande,84008105,8105.0,37.5836865,-106.3847838,2020-02-29,0
Colorado,Routt,84008107,8107.0,40.48596505,-106.9905548,2020-02-29,0
Colorado,Saguache,84008109,8109.0,38.08054629,-106.28246599999999,2020-02-29,0
Colorado,San Juan,84008111,8111.0,37.76248981,-107.67632890000002,2020-02-29,0
Colorado,San Miguel,84008113,8113.0,38.00450883,-108.4020725,2020-02-29,0
Colorado,Sedgwick,84008115,8115.0,40.87595412,-102.3519227,2020-02-29,0
Colorado,Summit,84008117,8117.0,39.63803232,-106.1150762,2020-02-29,0
Colorado,Teller,84008119,8119.0,38.88133511,-105.16148929999999,2020-02-29,0
Colorado,Unassigned,84090008,90008.0,0.0,0.0,2020-02-29,0
Colorado,Washington,84008121,8121.0,39.97015535,-103.202587,2020-02-29,0
Colorado,Weld,84008123,8123.0,40.55499405,-104.39296209999999,2020-02-29,0
Colorado,Yuma,84008125,8125.0,40.00346839,-102.4258673,2020-02-29,0
Texas,Anderson,84048001,48001.0,31.81534745,-95.65354823,2020-02-29,0
Texas,Andrews,84048003,48003.0,32.30468633,-102.63765479999999,2020-02-29,0
Texas,Angelina,84048005,48005.0,31.25457347,-94.60901487,2020-02-29,0
Texas,Aransas,84048007,48007.0,28.10556197,-96.9995047,2020-02-29,0
Texas,Archer,84048009,48009.0,33.61569967,-98.68754589,2020-02-29,0
Texas,Armstrong,84048011,48011.0,34.96507426,-101.35748740000001,2020-02-29,0
Texas,Atascosa,84048013,48013.0,28.89333001,-98.52730485,2020-02-29,0
Texas,Austin,84048015,48015.0,29.88548725,-96.27736949,2020-02-29,0
Texas,Bailey,84048017,48017.0,34.06854817,-102.8299707,2020-02-29,0
Texas,Bandera,84048019,48019.0,29.74619598,-99.24598147,2020-02-29,0
Texas,Bastrop,84048021,48021.0,30.10370699,-97.31206354,2020-02-29,0
Texas,Baylor,84048023,48023.0,33.61640794,-99.21352901,2020-02-29,0
Texas,Bee,84048025,48025.0,28.41761668,-97.74215593,2020-02-29,0
Texas,Bell,84048027,48027.0,31.03736027,-97.4785025,2020-02-29,0
Texas,Bexar,84048029,48029.0,29.44928723,-98.52019748,2020-02-29,0
Texas,Blanco,84048031,48031.0,30.26640707,-98.3999852,2020-02-29,0
Texas,Borden,84048033,48033.0,32.74363984,-101.43165090000001,2020-02-29,0
Texas,Bosque,84048035,48035.0,31.89978581,-97.63613524,2020-02-29,0
Texas,Bowie,84048037,48037.0,33.44626922,-94.41834132,2020-02-29,0
Texas,Brazoria,84048039,48039.0,29.18757369,-95.44563172,2020-02-29,0
Texas,Brazos,84048041,48041.0,30.663644800000004,-96.30205577,2020-02-29,0
Texas,Brewster,84048043,48043.0,29.81008251,-103.25203259999999,2020-02-29,0
Texas,Briscoe,84048045,48045.0,34.53026962,-101.2084947,2020-02-29,0
Texas,Brooks,84048047,48047.0,27.03103197,-98.21808402,2020-02-29,0
Texas,Brown,84048049,48049.0,31.77430356,-98.99907113,2020-02-29,0
Texas,Burleson,84048051,48051.0,30.49273808,-96.62158484,2020-02-29,0
Texas,Burnet,84048053,48053.0,30.78801353,-98.181887,2020-02-29,0
Texas,Caldwell,84048055,48055.0,29.83668859,-97.61814775,2020-02-29,0
Texas,Calhoun,84048057,48057.0,28.47048236,-96.61633945,2020-02-29,0
Texas,Callahan,84048059,48059.0,32.29760619,-99.37326312,2020-02-29,0
Texas,Cameron,84048061,48061.0,26.14524221,-97.48140372,2020-02-29,0
Texas,Camp,84048063,48063.0,32.97195142,-94.97790104,2020-02-29,0
Texas,Carson,84048065,48065.0,35.40365929,-101.35426690000001,2020-02-29,0
Texas,Cass,84048067,48067.0,33.07499881,-94.34646905,2020-02-29,0
Texas,Castro,84048069,48069.0,34.53016752,-102.2617243,2020-02-29,0
Texas,Chambers,84048071,48071.0,29.70972016,-94.67154501,2020-02-29,0
Texas,Cherokee,84048073,48073.0,31.837258000000002,-95.16559897,2020-02-29,0
Texas,Childress,84048075,48075.0,34.529304100000004,-100.2077916,2020-02-29,0
Texas,Clay,84048077,48077.0,33.78686685,-98.20771198,2020-02-29,0
Texas,Cochran,84048079,48079.0,33.60425307,-102.82844990000001,2020-02-29,0
Texas,Coke,84048081,48081.0,31.88911733,-100.5297533,2020-02-29,0
Texas,Coleman,84048083,48083.0,31.76736834,-99.45240766,2020-02-29,0
Texas,Collin,84048085,48085.0,33.18820114,-96.57264368,2020-02-29,0
Texas,Collingsworth,84048087,48087.0,34.96489496,-100.27001109999999,2020-02-29,0
Texas,Colorado,84048089,48089.0,29.622097999999998,-96.5273805,2020-02-29,0
Texas,Comal,84048091,48091.0,29.80811278,-98.27647225,2020-02-29,0
Texas,Comanche,84048093,48093.0,31.94854689,-98.55876441,2020-02-29,0
Texas,Concho,84048095,48095.0,31.32635934,-99.86473038,2020-02-29,0
Texas,Cooke,84048097,48097.0,33.63979567,-97.21240912,2020-02-29,0
Texas,Coryell,84048099,48099.0,31.39078397,-97.79936155,2020-02-29,0
Texas,Cottle,84048101,48101.0,34.07783319,-100.27850620000001,2020-02-29,0
Texas,Crane,84048103,48103.0,31.43052248,-102.5143314,2020-02-29,0
Texas,Crockett,84048105,48105.0,30.72367027,-101.4134238,2020-02-29,0
Texas,Crosby,84048107,48107.0,33.61431553,-101.30003640000001,2020-02-29,0
Texas,Culberson,84048109,48109.0,31.44506775,-104.5185739,2020-02-29,0
Texas,Dallam,84048111,48111.0,36.27787176,-102.60207249999999,2020-02-29,0
Texas,Dallas,84048113,48113.0,32.76670599,-96.77796049999999,2020-02-29,0
Texas,Dawson,84048115,48115.0,32.74255572,-101.94772420000001,2020-02-29,0
Texas,DeWitt,84048123,48123.0,29.08101855,-97.35681170000001,2020-02-29,0
Texas,Deaf Smith,84048117,48117.0,34.96522957,-102.6054267,2020-02-29,0
Texas,Delta,84048119,48119.0,33.38570922,-95.66921122,2020-02-29,0
Texas,Denton,84048121,48121.0,33.20521901,-97.11691153,2020-02-29,0
Texas,Dickens,84048125,48125.0,33.61616822,-100.7788855,2020-02-29,0
Texas,Dimmit,84048127,48127.0,28.42270064,-99.75645095,2020-02-29,0
Texas,Donley,84048129,48129.0,34.96517499,-100.8140093,2020-02-29,0
Texas,Duval,84048131,48131.0,27.68184592,-98.50864568,2020-02-29,0
Texas,Eastland,84048133,48133.0,32.32743996,-98.83243566,2020-02-29,0
Texas,Ector,84048135,48135.0,31.86898877,-102.54294279999999,2020-02-29,0
Texas,Edwards,84048137,48137.0,29.98202582,-100.304252,2020-02-29,0
Texas,El Paso,84048141,48141.0,31.76980765,-106.23632749999999,2020-02-29,0
Texas,Ellis,84048139,48139.0,32.34894117,-96.79371841,2020-02-29,0
Texas,Erath,84048143,48143.0,32.23602653,-98.21773417,2020-02-29,0
Texas,Falls,84048145,48145.0,31.25350609,-96.93630086,2020-02-29,0
Texas,Fannin,84048147,48147.0,33.59564294,-96.10751083,2020-02-29,0
Texas,Fayette,84048149,48149.0,29.87788372,-96.92076062,2020-02-29,0
Texas,Fisher,84048151,48151.0,32.74281316,-100.40193020000001,2020-02-29,0
Texas,Floyd,84048153,48153.0,34.07227468,-101.3031546,2020-02-29,0
Texas,Foard,84048155,48155.0,33.97308618,-99.7767797,2020-02-29,0
Texas,Fort Bend,84048157,48157.0,29.52704478,-95.77219463,2020-02-29,0
Texas,Franklin,84048159,48159.0,33.17653242,-95.21917243,2020-02-29,0
Texas,Freestone,84048161,48161.0,31.70422788,-96.15072516,2020-02-29,0
Texas,Frio,84048163,48163.0,28.86751206,-99.10804207,2020-02-29,0
Texas,Gaines,84048165,48165.0,32.74055318,-102.6353295,2020-02-29,0
Texas,Galveston,84048167,48167.0,29.40167322,-94.90469073,2020-02-29,0
Texas,Garza,84048169,48169.0,33.17969345,-101.2984114,2020-02-29,0
Texas,Gillespie,84048171,48171.0,30.31824095,-98.94676915,2020-02-29,0
Texas,Glasscock,84048173,48173.0,31.86942909,-101.5207776,2020-02-29,0
Texas,Goliad,84048175,48175.0,28.65696592,-97.42760647,2020-02-29,0
Texas,Gonzales,84048177,48177.0,29.45634206,-97.49424032,2020-02-29,0
Texas,Gray,84048179,48179.0,35.40081878,-100.8129222,2020-02-29,0
Texas,Grayson,84048181,48181.0,33.62744998,-96.67753461,2020-02-29,0
Texas,Gregg,84048183,48183.0,32.47940482,-94.81591935,2020-02-29,0
Texas,Grimes,84048185,48185.0,30.54579585,-95.98902499,2020-02-29,0
Texas,Guadalupe,84048187,48187.0,29.58165339,-97.94786822,2020-02-29,0
Texas,Hale,84048189,48189.0,34.07044901,-101.82681140000001,2020-02-29,0
Texas,Hall,84048191,48191.0,34.5307555,-100.68138520000001,2020-02-29,0
Texas,Hamilton,84048193,48193.0,31.70470573,-98.11083887,2020-02-29,0
Texas,Hansford,84048195,48195.0,36.27743284,-101.3545796,2020-02-29,0
Texas,Hardeman,84048197,48197.0,34.28944521,-99.74632408,2020-02-29,0
Texas,Hardin,84048199,48199.0,30.33364686,-94.38931817,2020-02-29,0
Texas,Harris,84048201,48201.0,29.85864939,-95.39339521,2020-02-29,0
Texas,Harrison,84048203,48203.0,32.54935988,-94.36934071,2020-02-29,0
Texas,Hartley,84048205,48205.0,35.84008013,-102.6029022,2020-02-29,0
Texas,Haskell,84048207,48207.0,33.17823584,-99.73037358,2020-02-29,0
Texas,Hays,84048209,48209.0,30.05669873,-98.02944344,2020-02-29,0
Texas,Hemphill,84048211,48211.0,35.83764858,-100.2703577,2020-02-29,0
Texas,Henderson,84048213,48213.0,32.21128872,-95.85846587,2020-02-29,0
Texas,Hidalgo,84048215,48215.0,26.39418217,-98.18299696,2020-02-29,0
Texas,Hill,84048217,48217.0,31.99045053,-97.13423143,2020-02-29,0
Texas,Hockley,84048219,48219.0,33.60771256,-102.3431676,2020-02-29,0
Texas,Hood,84048221,48221.0,32.42990927,-97.83242024,2020-02-29,0
Texas,Hopkins,84048223,48223.0,33.14875072,-95.56351139,2020-02-29,0
Texas,Houston,84048225,48225.0,31.31925973,-95.42226208,2020-02-29,0
Texas,Howard,84048227,48227.0,32.30621324,-101.4356444,2020-02-29,0
Texas,Hudspeth,84048229,48229.0,31.45628381,-105.388178,2020-02-29,0
Texas,Hunt,84048231,48231.0,33.12351514,-96.08551032,2020-02-29,0
Texas,Hutchinson,84048233,48233.0,35.84006574,-101.3546643,2020-02-29,0
Texas,Irion,84048235,48235.0,31.30375559,-100.982439,2020-02-29,0
Texas,Jack,84048237,48237.0,33.23377248,-98.17283469,2020-02-29,0
Texas,Jackson,84048239,48239.0,28.95472367,-96.57749563,2020-02-29,0
Texas,Jasper,84048241,48241.0,30.74685667,-94.02667579,2020-02-29,0
Texas,Jeff Davis,84048243,48243.0,30.71490589,-104.1399973,2020-02-29,0
Texas,Jefferson,84048245,48245.0,29.8832777,-94.16434171,2020-02-29,0
Texas,Jim Hogg,84048247,48247.0,27.04453923,-98.69681870000001,2020-02-29,0
Texas,Jim Wells,84048249,48249.0,27.73103938,-98.0904705,2020-02-29,0
Texas,Johnson,84048251,48251.0,32.37877812,-97.36615819,2020-02-29,0
Texas,Jones,84048253,48253.0,32.73997145,-99.87861576,2020-02-29,0
Texas,Karnes,84048255,48255.0,28.90705334,-97.85960149,2020-02-29,0
Texas,Kaufman,84048257,48257.0,32.599141700000004,-96.28734728,2020-02-29,0
Texas,Kendall,84048259,48259.0,29.94414155,-98.7113588,2020-02-29,0
Texas,Kenedy,84048261,48261.0,26.92601662,-97.66413984,2020-02-29,0
Texas,Kent,84048263,48263.0,33.18104136,-100.7780939,2020-02-29,0
Texas,Kerr,84048265,48265.0,30.06040006,-99.34930144,2020-02-29,0
Texas,Kimble,84048267,48267.0,30.48678918,-99.74856473,2020-02-29,0
Texas,King,84048269,48269.0,33.61643847,-100.2558057,2020-02-29,0
Texas,Kinney,84048271,48271.0,29.34967888,-100.41866379999999,2020-02-29,0
Texas,Kleberg,84048273,48273.0,27.42435506,-97.69894948,2020-02-29,0
Texas,Knox,84048275,48275.0,33.60519951,-99.74229059999999,2020-02-29,0
Texas,La Salle,84048283,48283.0,28.34453111,-99.09908775,2020-02-29,0
Texas,Lamar,84048277,48277.0,33.66981763,-95.57404777,2020-02-29,0
Texas,Lamb,84048279,48279.0,34.06859623,-102.35162890000001,2020-02-29,0
Texas,Lampasas,84048281,48281.0,31.19531316,-98.24206613,2020-02-29,0
Texas,Lavaca,84048285,48285.0,29.38508402,-96.93186692,2020-02-29,0
Texas,Lee,84048287,48287.0,30.31120597,-96.97045773,2020-02-29,0
Texas,Leon,84048289,48289.0,31.29872538,-95.9936328,2020-02-29,0
Texas,Liberty,84048291,48291.0,30.15152688,-94.81205615,2020-02-29,0
Texas,Limestone,84048293,48293.0,31.5454767,-96.58095444,2020-02-29,0
Texas,Lipscomb,84048295,48295.0,36.27783108,-100.27331509999999,2020-02-29,0
Texas,Live Oak,84048297,48297.0,28.35101362,-98.1246786,2020-02-29,0
Texas,Llano,84048299,48299.0,30.70645047,-98.68475262,2020-02-29,0
Texas,Loving,84048301,48301.0,31.84947612,-103.5818571,2020-02-29,0
Texas,Lubbock,84048303,48303.0,33.61008596,-101.82047890000001,2020-02-29,0
Texas,Lynn,84048305,48305.0,33.17657705,-101.8162849,2020-02-29,0
Texas,Madison,84048313,48313.0,30.96694679,-95.93003775,2020-02-29,0
Texas,Marion,84048315,48315.0,32.79868409,-94.35661230000001,2020-02-29,0
Texas,Martin,84048317,48317.0,32.30600051,-101.9513518,2020-02-29,0
Texas,Mason,84048319,48319.0,30.71780434,-99.22629416,2020-02-29,0
Texas,Matagorda,84048321,48321.0,28.81955746,-96.01230294,2020-02-29,0
Texas,Maverick,84048323,48323.0,28.7429195,-100.3157686,2020-02-29,0
Texas,McCulloch,84048307,48307.0,31.1925468,-99.34682807,2020-02-29,0
Texas,McLennan,84048309,48309.0,31.55255453,-97.20217694,2020-02-29,0
Texas,McMullen,84048311,48311.0,28.35251708,-98.56769164,2020-02-29,0
Texas,Medina,84048325,48325.0,29.355730100000002,-99.11030298,2020-02-29,0
Texas,Menard,84048327,48327.0,30.88990665,-99.82047940000001,2020-02-29,0
Texas,Midland,84048329,48329.0,31.86904128,-102.03156820000001,2020-02-29,0
Texas,Milam,84048331,48331.0,30.78581830000001,-96.97718698,2020-02-29,0
Texas,Mills,84048333,48333.0,31.49557106,-98.59272068,2020-02-29,0
Texas,Mitchell,84048335,48335.0,32.30623474,-100.9212058,2020-02-29,0
Texas,Montague,84048337,48337.0,33.67521893,-97.72500958,2020-02-29,0
Texas,Montgomery,84048339,48339.0,30.30079133,-95.50572772,2020-02-29,0
Texas,Moore,84048341,48341.0,35.83769242,-101.8930281,2020-02-29,0
Texas,Morris,84048343,48343.0,33.11304005,-94.73255695,2020-02-29,0
Texas,Motley,84048345,48345.0,34.07408766,-100.77972199999999,2020-02-29,0
Texas,Nacogdoches,84048347,48347.0,31.62017125,-94.61803994,2020-02-29,0
Texas,Navarro,84048349,48349.0,32.04620681,-96.47428766,2020-02-29,0
Texas,Newton,84048351,48351.0,30.78548982,-93.74408813,2020-02-29,0
Texas,Nolan,84048353,48353.0,32.30365282,-100.4060208,2020-02-29,0
Texas,Nueces,84048355,48355.0,27.736286,-97.5433285,2020-02-29,0
Texas,Ochiltree,84048357,48357.0,36.27829105,-100.8158184,2020-02-29,0
Texas,Oldham,84048359,48359.0,35.40425596,-102.6027606,2020-02-29,0
Texas,Orange,84048361,48361.0,30.11879481,-93.89412775,2020-02-29,0
Texas,Out of TX,84080048,80048.0,0.0,0.0,2020-02-29,0
Texas,Palo Pinto,84048363,48363.0,32.75310985,-98.31319001,2020-02-29,0
Texas,Panola,84048365,48365.0,32.163959600000005,-94.30552481,2020-02-29,0
Texas,Parker,84048367,48367.0,32.77757172,-97.80500621,2020-02-29,0
Texas,Parmer,84048369,48369.0,34.52993409,-102.78446679999999,2020-02-29,0
Texas,Pecos,84048371,48371.0,30.78097267,-102.72412609999999,2020-02-29,0
Texas,Polk,84048373,48373.0,30.79472531,-94.82766240000001,2020-02-29,0
Texas,Potter,84048375,48375.0,35.40133773,-101.893964,2020-02-29,0
Texas,Presidio,84048377,48377.0,29.99954402,-104.24080790000001,2020-02-29,0
Texas,Rains,84048379,48379.0,32.87109387,-95.79232691,2020-02-29,0
Texas,Randall,84048381,48381.0,34.96585996,-101.8971322,2020-02-29,0
Texas,Reagan,84048383,48383.0,31.36607041,-101.52326590000001,2020-02-29,0
Texas,Real,84048385,48385.0,29.83321503,-99.82018052,2020-02-29,0
Texas,Red River,84048387,48387.0,33.61886692,-95.04841765,2020-02-29,0
Texas,Reeves,84048389,48389.0,31.32323325,-103.69038959999999,2020-02-29,0
Texas,Refugio,84048391,48391.0,28.323897600000002,-97.15766311,2020-02-29,0
Texas,Roberts,84048393,48393.0,35.83809685,-100.813175,2020-02-29,0
Texas,Robertson,84048395,48395.0,31.02539637,-96.51272246,2020-02-29,0
Texas,Rockwall,84048397,48397.0,32.89779518,-96.40771592,2020-02-29,0
Texas,Runnels,84048399,48399.0,31.8314342,-99.97616148,2020-02-29,0
Texas,Rusk,84048401,48401.0,32.10773545,-94.76176432,2020-02-29,0
Texas,Sabine,84048403,48403.0,31.34318809,-93.85440451,2020-02-29,0
Texas,San Augustine,84048405,48405.0,31.39457611,-94.17000399,2020-02-29,0
Texas,San Jacinto,84048407,48407.0,30.57933681,-95.16260304,2020-02-29,0
Texas,San Patricio,84048409,48409.0,28.00880118,-97.51763891,2020-02-29,0
Texas,San Saba,84048411,48411.0,31.1577796,-98.81758731,2020-02-29,0
Texas,Schleicher,84048413,48413.0,30.89740592,-100.5384842,2020-02-29,0
Texas,Scurry,84048415,48415.0,32.74613808,-100.91626640000001,2020-02-29,0
Texas,Shackelford,84048417,48417.0,32.73587756,-99.35401337,2020-02-29,0
Texas,Shelby,84048419,48419.0,31.79211404,-94.14550696,2020-02-29,0
Texas,Sherman,84048421,48421.0,36.27751473,-101.8933156,2020-02-29,0
Texas,Smith,84048423,48423.0,32.37474036,-95.27175679999999,2020-02-29,0
Texas,Somervell,84048425,48425.0,32.22236802,-97.77403489,2020-02-29,0
Texas,Starr,84048427,48427.0,26.56150059,-98.73892358,2020-02-29,0
Texas,Stephens,84048429,48429.0,32.73553157,-98.83631615,2020-02-29,0
Texas,Sterling,84048431,48431.0,31.82781912,-101.05007459999999,2020-02-29,0
Texas,Stonewall,84048433,48433.0,33.17906744,-100.25384009999999,2020-02-29,0
Texas,Sutton,84048435,48435.0,30.49856623,-100.5382014,2020-02-29,0
Texas,Swisher,84048437,48437.0,34.53028891,-101.73491740000001,2020-02-29,0
Texas,Tarrant,84048439,48439.0,32.77143818,-97.29101614,2020-02-29,0
Texas,Taylor,84048441,48441.0,32.30163422,-99.89007449,2020-02-29,0
Texas,Terrell,84048443,48443.0,30.22429013,-102.0766732,2020-02-29,0
Texas,Terry,84048445,48445.0,33.17402785,-102.3354521,2020-02-29,0
Texas,Throckmorton,84048447,48447.0,33.17751417,-99.21226795,2020-02-29,0
Texas,Titus,84048449,48449.0,33.21339719,-94.96797273,2020-02-29,0
Texas,Tom Green,84048451,48451.0,31.40464436,-100.46244300000001,2020-02-29,0
Texas,Travis,84048453,48453.0,30.33432034,-97.78535620000001,2020-02-29,0
Texas,Trinity,84048455,48455.0,31.0879489,-95.1367187,2020-02-29,0
Texas,Tyler,84048457,48457.0,30.77031716,-94.37690895,2020-02-29,0
Texas,Unassigned,84090048,90048.0,0.0,0.0,2020-02-29,0
Texas,Upshur,84048459,48459.0,32.73706798,-94.93999853,2020-02-29,0
Texas,Upton,84048461,48461.0,31.36868194,-102.0423217,2020-02-29,0
Texas,Uvalde,84048463,48463.0,29.35739637,-99.76229172,2020-02-29,0
Texas,Val Verde,84048465,48465.0,29.89149232,-101.1525205,2020-02-29,0
Texas,Van Zandt,84048467,48467.0,32.56483801,-95.83766469,2020-02-29,0
Texas,Victoria,84048469,48469.0,28.79780988,-96.96813006,2020-02-29,0
Texas,Walker,84048471,48471.0,30.73872995,-95.57440968,2020-02-29,0
Texas,Waller,84048473,48473.0,30.01058447,-95.99011759,2020-02-29,0
Texas,Ward,84048475,48475.0,31.50999644,-103.09279090000001,2020-02-29,0
Texas,Washington,84048477,48477.0,30.21498498,-96.40946246,2020-02-29,0
Texas,Webb,84048479,48479.0,27.7610369,-99.33237355,2020-02-29,0
Texas,Wharton,84048481,48481.0,29.27765923,-96.22319248,2020-02-29,0
Texas,Wheeler,84048483,48483.0,35.40114335,-100.26995140000001,2020-02-29,0
Texas,Wichita,84048485,48485.0,33.98842886,-98.70410340000001,2020-02-29,0
Texas,Wilbarger,84048487,48487.0,34.07945812,-99.24178437,2020-02-29,0
Texas,Willacy,84048489,48489.0,26.47411727,-97.61535848,2020-02-29,0
Texas,Williamson,84048491,48491.0,30.64655664,-97.60048540000001,2020-02-29,0
Texas,Wilson,84048493,48493.0,29.1732598,-98.08693082,2020-02-29,0
Texas,Winkler,84048495,48495.0,31.85008651,-103.04851629999999,2020-02-29,0
Texas,Wise,84048497,48497.0,33.21570665,-97.65460265,2020-02-29,0
Texas,Wood,84048499,48499.0,32.78722382,-95.38236368,2020-02-29,0
Texas,Yoakum,84048501,48501.0,33.17320212,-102.82764329999999,2020-02-29,0
Texas,Young,84048503,48503.0,33.17659707,-98.68790885,2020-02-29,0
Texas,Zapata,84048505,48505.0,27.00156391,-99.16987152,2020-02-29,0
Texas,Zavala,84048507,48507.0,28.86617238,-99.76050829,2020-02-29,0
Virginia,Accomack,84051001,51001.0,37.76707161,-75.63234615,2020-02-29,0
Virginia,Albemarle,84051003,51003.0,38.02080697,-78.55481085,2020-02-29,0
Virginia,Alexandria,84051510,51510.0,38.814003,-77.08183073,2020-02-29,0
Virginia,Alleghany,84051005,51005.0,37.78636074,-80.00222498,2020-02-29,0
Virginia,Amelia,84051007,51007.0,37.34081025,-77.98584649,2020-02-29,0
Virginia,Amherst,84051009,51009.0,37.60308293,-79.14548696,2020-02-29,0
Virginia,Appomattox,84051011,51011.0,37.37569884,-78.81340003,2020-02-29,0
Virginia,Arlington,84051013,51013.0,38.8767675,-77.10139853,2020-02-29,0
Virginia,Augusta,84051015,51015.0,38.16404586,-79.12461614,2020-02-29,0
Virginia,Bath,84051017,51017.0,38.05852573,-79.73912095,2020-02-29,0
Virginia,Bedford,84051019,51019.0,37.3080028,-79.5281964,2020-02-29,0
Virginia,Bland,84051021,51021.0,37.13128068,-81.13599391,2020-02-29,0
Virginia,Botetourt,84051023,51023.0,37.55531756,-79.80982182,2020-02-29,0
Virginia,Bristol,84051520,51520.0,36.616302399999995,-82.16359122,2020-02-29,0
Virginia,Brunswick,84051025,51025.0,36.76366949,-77.8593436,2020-02-29,0
Virginia,Buchanan,84051027,51027.0,37.26818323,-82.03749726,2020-02-29,0
Virginia,Buckingham,84051029,51029.0,37.57242268,-78.52518834,2020-02-29,0
Virginia,Buena Vista,84051530,51530.0,37.73484642,-79.35296097,2020-02-29,0
Virginia,Campbell,84051031,51031.0,37.20553386,-79.09678609,2020-02-29,0
Virginia,Caroline,84051033,51033.0,38.02679129,-77.34901405,2020-02-29,0
Virginia,Carroll,84051035,51035.0,36.73066666,-80.73455942,2020-02-29,0
Virginia,Charles City,84051036,51036.0,37.35358063,-77.05634116,2020-02-29,0
Virginia,Charlotte,84051037,51037.0,37.01909701,-78.66314092,2020-02-29,0
Virginia,Charlottesville,84051540,51540.0,38.03527919,-78.48569588,2020-02-29,0
Virginia,Chesapeake,84051550,51550.0,36.67670048,-76.30545744,2020-02-29,0
Virginia,Chesterfield,84051041,51041.0,37.37373208,-77.58680140000001,2020-02-29,0
Virginia,Clarke,84051043,51043.0,39.11271747,-77.99199425,2020-02-29,0
Virginia,Colonial Heights,84051570,51570.0,37.26420587,-77.39609676,2020-02-29,0
Virginia,Covington,84051580,51580.0,37.7824656,-79.98631446,2020-02-29,0
Virginia,Craig,84051045,51045.0,37.48133648,-80.21072274,2020-02-29,0
Virginia,Culpeper,84051047,51047.0,38.48199985,-77.95630870000002,2020-02-29,0
Virginia,Cumberland,84051049,51049.0,37.51328851,-78.24398086,2020-02-29,0
Virginia,Danville,84051590,51590.0,36.58022376,-79.40395668,2020-02-29,0
Virginia,Dickenson,84051051,51051.0,37.12560977,-82.35124171,2020-02-29,0
Virginia,Dinwiddie,84051053,51053.0,37.07544585,-77.63451754,2020-02-29,0
Virginia,Emporia,84051595,51595.0,36.69455571,-77.53406129,2020-02-29,0
Virginia,Essex,84051057,51057.0,37.93357639,-76.94230311,2020-02-29,0
Virginia,Fairfax,84051059,51059.0,38.83677558,-77.27565836,2020-02-29,0
Virginia,Fairfax City,84051600,51600.0,38.85157547,-77.29779640000002,2020-02-29,0
Virginia,Falls Church,84051610,51610.0,38.88485255,-77.17560759,2020-02-29,0
Virginia,Fauquier,84051061,51061.0,38.73564842,-77.80647472,2020-02-29,0
Virginia,Floyd,84051063,51063.0,36.9302126,-80.36738849,2020-02-29,0
Virginia,Fluvanna,84051065,51065.0,37.84157909,-78.27715475,2020-02-29,0
Virginia,Franklin,84051067,51067.0,36.99536167,-79.88023649,2020-02-29,0
Virginia,Franklin City,84051620,51620.0,36.6831435,-76.93859681,2020-02-29,0
Virginia,Frederick,84051069,51069.0,39.20172582,-78.25974949,2020-02-29,0
Virginia,Fredericksburg,84051630,51630.0,38.2977863,-77.4922454,2020-02-29,0
Virginia,Galax,84051640,51640.0,36.66601852,-80.91703124,2020-02-29,0
Virginia,Giles,84051071,51071.0,37.31234791,-80.70636931,2020-02-29,0
Virginia,Gloucester,84051073,51073.0,37.40809042,-76.53524337,2020-02-29,0
Virginia,Goochland,84051075,51075.0,37.71714806,-77.90381514,2020-02-29,0
Virginia,Grayson,84051077,51077.0,36.65677234,-81.23215889,2020-02-29,0
Virginia,Greene,84051079,51079.0,38.29545894,-78.46525378,2020-02-29,0
Virginia,Greensville,84051081,51081.0,36.67878901,-77.56351439,2020-02-29,0
Virginia,Halifax,84051083,51083.0,36.76654925,-78.93512622,2020-02-29,0
Virginia,Hampton,84051650,51650.0,37.03513786,-76.35879121,2020-02-29,0
Virginia,Hanover,84051085,51085.0,37.7583355,-77.49464673,2020-02-29,0
Virginia,Harrisonburg,84051660,51660.0,38.43542574,-78.87536254,2020-02-29,0
Virginia,Henrico,84051087,51087.0,37.53460572,-77.39326555,2020-02-29,0
Virginia,Henry,84051089,51089.0,36.68542395,-79.87634026,2020-02-29,0
Virginia,Highland,84051091,51091.0,38.35799465,-79.56124594,2020-02-29,0
Virginia,Hopewell,84051670,51670.0,37.29186313,-77.29754684,2020-02-29,0
Virginia,Isle of Wight,84051093,51093.0,36.90579348,-76.70842863,2020-02-29,0
Virginia,James City,84051095,51095.0,37.31156958,-76.76950618,2020-02-29,0
Virginia,King George,84051099,51099.0,38.26818502,-77.15852768,2020-02-29,0
Virginia,King William,84051101,51101.0,37.70965316,-77.09384941,2020-02-29,0
Virginia,King and Queen,84051097,51097.0,37.71044922,-76.88689628,2020-02-29,0
Virginia,Lancaster,84051103,51103.0,37.71889653,-76.46400482,2020-02-29,0
Virginia,Lee,84051105,51105.0,36.70586667,-83.12606515,2020-02-29,0
Virginia,Lexington,84051678,51678.0,37.78258621,-79.44262866,2020-02-29,0
Virginia,Loudoun,84051107,51107.0,39.08990083,-77.63481877,2020-02-29,0
Virginia,Louisa,84051109,51109.0,37.97850256,-77.96274807,2020-02-29,0
Virginia,Lunenburg,84051111,51111.0,36.94618528,-78.24133319,2020-02-29,0
Virginia,Lynchburg,84051680,51680.0,37.40021399,-79.19888138,2020-02-29,0
Virginia,Madison,84051113,51113.0,38.41531222,-78.28220331,2020-02-29,0
Virginia,Manassas,84051683,51683.0,38.7464321,-77.48509905,2020-02-29,0
Virginia,Manassas Park,84051685,51685.0,38.77058531,-77.44399307,2020-02-29,0
Virginia,Martinsville,84051690,51690.0,36.68212094,-79.86352771,2020-02-29,0
Virginia,Mathews,84051115,51115.0,37.44164146,-76.34098896,2020-02-29,0
Virginia,Mecklenburg,84051117,51117.0,36.67882005,-78.36131056,2020-02-29,0
Virginia,Middlesex,84051119,51119.0,37.63191998,-76.55064617,2020-02-29,0
Virginia,Montgomery,84051121,51121.0,37.17746986,-80.37868691,2020-02-29,0
Virginia,Nelson,84051125,51125.0,37.78790447,-78.88498513,2020-02-29,0
Virginia,New Kent,84051127,51127.0,37.50694406,-76.99828634,2020-02-29,0
Virginia,Newport News,84051700,51700.0,37.08166899,-76.51754109,2020-02-29,0
Virginia,Norfolk,84051710,51710.0,36.89934014,-76.26420872,2020-02-29,0
Virginia,Northampton,84051131,51131.0,37.34062933,-75.87751591,2020-02-29,0
Virginia,Northumberland,84051133,51133.0,37.89202088,-76.41949732,2020-02-29,0
Virginia,Norton,84051720,51720.0,36.93357076,-82.62750411,2020-02-29,0
Virginia,Nottoway,84051135,51135.0,37.1435975,-78.05065922,2020-02-29,0
Virginia,Orange,84051137,51137.0,38.24530219,-78.01560400000002,2020-02-29,0
Virginia,Out of VA,84080051,80051.0,0.0,0.0,2020-02-29,0
Virginia,Page,84051139,51139.0,38.61807452,-78.48797204,2020-02-29,0
Virginia,Patrick,84051141,51141.0,36.680163799999995,-80.2865648,2020-02-29,0
Virginia,Petersburg,84051730,51730.0,37.20530399,-77.39368102,2020-02-29,0
Virginia,Pittsylvania,84051143,51143.0,36.81980341,-79.39731264,2020-02-29,0
Virginia,Poquoson,84051735,51735.0,37.14259351,-76.35798148,2020-02-29,0
Virginia,Portsmouth,84051740,51740.0,36.85914825,-76.35971629,2020-02-29,0
Virginia,Powhatan,84051145,51145.0,37.55016038,-77.91267882,2020-02-29,0
Virginia,Prince Edward,84051147,51147.0,37.22554789,-78.43597949,2020-02-29,0
Virginia,Prince George,84051149,51149.0,37.18497668,-77.22922187,2020-02-29,0
Virginia,Prince William,84051153,51153.0,38.70916224,-77.48713689,2020-02-29,0
Virginia,Pulaski,84051155,51155.0,37.06474963,-80.71229738,2020-02-29,0
Virginia,Radford,84051750,51750.0,37.12222899,-80.56027320000003,2020-02-29,0
Virginia,Rappahannock,84051157,51157.0,38.68295619,-78.15826963,2020-02-29,0
Virginia,Richmond,84051159,51159.0,37.937575,-76.72920628,2020-02-29,0
Virginia,Richmond City,84051760,51760.0,37.53255773,-77.47966921,2020-02-29,0
Virginia,Roanoke,84051161,51161.0,37.26865804,-80.06396753,2020-02-29,0
Virginia,Roanoke City,84051770,51770.0,37.27791025,-79.96189766,2020-02-29,0
Virginia,Rockbridge,84051163,51163.0,37.81204314,-79.44605905,2020-02-29,0
Virginia,Rockingham,84051165,51165.0,38.51006137,-78.87260325,2020-02-29,0
Virginia,Russell,84051167,51167.0,36.93028320000001,-82.10095486,2020-02-29,0
Virginia,Salem,84051775,51775.0,37.2836193,-80.06219455,2020-02-29,0
Virginia,Scott,84051169,51169.0,36.71466456,-82.60171704,2020-02-29,0
Virginia,Shenandoah,84051171,51171.0,38.85905135,-78.56813762,2020-02-29,0
Virginia,Smyth,84051173,51173.0,36.84455636,-81.53344948,2020-02-29,0
Virginia,Southampton,84051175,51175.0,36.72231125,-77.10642712,2020-02-29,0
Virginia,Spotsylvania,84051177,51177.0,38.18574462,-77.655399,2020-02-29,0
Virginia,Stafford,84051179,51179.0,38.41758738,-77.45917053,2020-02-29,0
Virginia,Staunton,84051790,51790.0,38.15965544,-79.05979937,2020-02-29,0
Virginia,Suffolk,84051800,51800.0,36.70155394,-76.63603554,2020-02-29,0
Virginia,Surry,84051181,51181.0,37.11781893,-76.88450012,2020-02-29,0
Virginia,Sussex,84051183,51183.0,36.92432914,-77.25791182,2020-02-29,0
Virginia,Tazewell,84051185,51185.0,37.12191123,-81.56685568,2020-02-29,0
Virginia,Unassigned,84090051,90051.0,0.0,0.0,2020-02-29,0
Virginia,Virginia Beach,84051810,51810.0,36.73285734,-76.04566934,2020-02-29,0
Virginia,Warren,84051187,51187.0,38.90847745,-78.20280433,2020-02-29,0
Virginia,Washington,84051191,51191.0,36.72341572,-81.95666289,2020-02-29,0
Virginia,Waynesboro,84051820,51820.0,38.06451466,-78.90293905,2020-02-29,0
Virginia,Westmoreland,84051193,51193.0,38.11021557,-76.80213247,2020-02-29,0
Virginia,Williamsburg,84051830,51830.0,37.28131268,-76.70905141,2020-02-29,0
Virginia,Winchester,84051840,51840.0,39.17054517,-78.17325058,2020-02-29,0
Virginia,Wise,84051195,51195.0,36.9746148,-82.62410519,2020-02-29,0
Virginia,Wythe,84051197,51197.0,36.91582035,-81.07834059,2020-02-29,0
Virginia,York,84051199,51199.0,37.24374789,-76.54412815,2020-02-29,0
Washington,Adams,84053001,53001.0,46.98299757,-118.56017340000001,2020-02-29,0
Washington,Asotin,84053003,53003.0,46.18894415,-117.2022851,2020-02-29,0
Washington,Benton,84053005,53005.0,46.23946995,-119.51208340000001,2020-02-29,0
Washington,Chelan,84053007,53007.0,47.87046092,-120.6173956,2020-02-29,0
Washington,Clallam,84053009,53009.0,48.04754642,-123.92263190000001,2020-02-29,0
Washington,Clark,84053011,53011.0,45.77568046,-122.48292040000001,2020-02-29,0
Washington,Columbia,84053013,53013.0,46.29442881,-117.9051983,2020-02-29,0
Washington,Cowlitz,84053015,53015.0,46.19074721,-122.6782231,2020-02-29,0
Washington,Douglas,84053017,53017.0,47.7361335,-119.69293700000001,2020-02-29,0
Washington,Ferry,84053019,53019.0,48.471143100000006,-118.5154041,2020-02-29,0
Washington,Franklin,84053021,53021.0,46.53351425,-118.9018212,2020-02-29,0
Washington,Garfield,84053023,53023.0,46.43197502,-117.54540320000001,2020-02-29,0
Washington,Grant,84053025,53025.0,47.20753737,-119.4500749,2020-02-29,0
Washington,Grays Harbor,84053027,53027.0,47.14003705,-123.7820567,2020-02-29,0
Washington,Island,84053029,53029.0,48.14713305,-122.5216407,2020-02-29,0
Washington,Jefferson,84053031,53031.0,47.75003077,-123.56097040000002,2020-02-29,0
Washington,King,84053033,53033.0,47.49137892,-121.8346131,2020-02-29,5
Washington,Kitsap,84053035,53035.0,47.63479026,-122.6436061,2020-02-29,0
Washington,Kittitas,84053037,53037.0,47.12521214,-120.67943899999999,2020-02-29,0
Washington,Klickitat,84053039,53039.0,45.87325839,-120.7913598,2020-02-29,0
Washington,Lewis,84053041,53041.0,46.57756476,-122.39257690000001,2020-02-29,0
Washington,Lincoln,84053043,53043.0,47.57705241,-118.41943880000001,2020-02-29,0
Washington,Mason,84053045,53045.0,47.35007586,-123.1863685,2020-02-29,0
Washington,Okanogan,84053047,53047.0,48.54855019,-119.73872240000001,2020-02-29,0
Washington,Out of WA,84080053,80053.0,0.0,0.0,2020-02-29,0
Washington,Pacific,84053049,53049.0,46.55418369,-123.7285716,2020-02-29,0
Washington,Pend Oreille,84053051,53051.0,48.53234021,-117.2741804,2020-02-29,0
Washington,Pierce,84053053,53053.0,47.03892768,-122.14059579999999,2020-02-29,0
Washington,San Juan,84053055,53055.0,48.60182783,-122.96745,2020-02-29,0
Washington,Skagit,84053057,53057.0,48.48171488,-121.766131,2020-02-29,0
Washington,Skamania,84053059,53059.0,46.02408726,-121.91644029999999,2020-02-29,0
Washington,Snohomish,84053061,53061.0,48.04615983,-121.7170703,2020-02-29,1
Washington,Spokane,84053063,53063.0,47.62113146,-117.4046494,2020-02-29,0
Washington,Stevens,84053065,53065.0,48.40035475,-117.8542701,2020-02-29,0
Washington,Thurston,84053067,53067.0,46.9291895,-122.82906559999999,2020-02-29,0
Washington,Unassigned,84090053,90053.0,0.0,0.0,2020-02-29,0
Washington,Wahkiakum,84053069,53069.0,46.29180039999999,-123.4250831,2020-02-29,0
Washington,Walla Walla,84053071,53071.0,46.23040051,-118.4775539,2020-02-29,0
Washington,Whatcom,84053073,53073.0,48.82227976,-121.74900179999999,2020-02-29,0
Washington,Whitman,84053075,53075.0,46.90022523,-117.52417630000001,2020-02-29,0
Washington,Yakima,84053077,53077.0,46.45738486,-120.73801259999999,2020-02-29,0
California,Alameda,84006001,6001.0,37.64629437,-121.8929271,2020-03-31,269
California,Alpine,84006003,6003.0,38.59678594,-119.82235940000001,2020-03-31,0
California,Amador,84006005,6005.0,38.44583082,-120.65696000000001,2020-03-31,1
California,Butte,84006007,6007.0,39.66727762,-121.6005252,2020-03-31,6
California,Calaveras,84006009,6009.0,38.20537103,-120.55291299999999,2020-03-31,3
California,Colusa,84006011,6011.0,39.17881957,-122.2331726,2020-03-31,1
California,Contra Costa,84006013,6013.0,37.91923498,-121.9289527,2020-03-31,246
California,Del Norte,84006015,6015.0,41.74228275,-123.89740630000001,2020-03-31,0
California,El Dorado,84006017,6017.0,38.77965956,-120.5233166,2020-03-31,14
California,Fresno,84006019,6019.0,36.75733899,-119.6466953,2020-03-31,61
California,Glenn,84006021,6021.0,39.59875897,-122.3938452,2020-03-31,2
California,Humboldt,84006023,6023.0,40.69923009,-123.876044,2020-03-31,17
California,Imperial,84006025,6025.0,33.0393082,-115.36690420000001,2020-03-31,17
California,Inyo,84006027,6027.0,36.51112084,-117.41119779999998,2020-03-31,8
California,Kern,84006029,6029.0,35.34329425,-118.72777959999999,2020-03-31,83
California,Kings,84006031,6031.0,36.07409056,-119.8159973,2020-03-31,2
California,Lake,84006033,6033.0,39.10124298,-122.75362439999999,2020-03-31,0
California,Lassen,84006035,6035.0,40.67311306,-120.59350990000002,2020-03-31,0
California,Los Angeles,84006037,6037.0,34.30828379,-118.22824109999999,2020-03-31,3018
California,Madera,84006039,6039.0,37.21513971,-119.76655890000002,2020-03-31,17
California,Marin,84006041,6041.0,38.07122463,-122.72106310000001,2020-03-31,85
California,Mariposa,84006043,6043.0,37.57978556,-119.9073334,2020-03-31,0
California,Mendocino,84006045,6045.0,39.4381191,-123.39113130000001,2020-03-31,4
California,Merced,84006047,6047.0,37.18922369,-120.72090349999999,2020-03-31,6
California,Modoc,84006049,6049.0,41.58965602,-120.7244817,2020-03-31,0
California,Mono,84006051,6051.0,37.93899289,-118.8872409,2020-03-31,12
California,Monterey,84006053,6053.0,36.21862405,-121.24133970000001,2020-03-31,43
California,Napa,84006055,6055.0,38.50735751,-122.33283899999999,2020-03-31,9
California,Nevada,84006057,6057.0,39.30394768,-120.76272809999999,2020-03-31,15
California,Orange,84006059,6059.0,33.70147516,-117.76459979999998,2020-03-31,501
California,Out of CA,84080006,80006.0,0.0,0.0,2020-03-31,0
California,Placer,84006061,6061.0,39.06167234,-120.72405690000001,2020-03-31,49
California,Plumas,84006063,6063.0,40.00355989,-120.8395236,2020-03-31,0
California,Riverside,84006065,6065.0,33.74314981,-115.9933578,2020-03-31,288
California,Sacramento,84006067,6067.0,38.45106826,-121.34253740000001,2020-03-31,270
California,San Benito,84006069,6069.0,36.60308176,-121.069975,2020-03-31,12
California,San Bernardino,84006071,6071.0,34.84060306,-116.1774685,2020-03-31,193
California,San Diego,84006073,6073.0,33.03484597,-116.73653259999999,2020-03-31,601
California,San Francisco,84006075,6075.0,37.75215114,-122.43856720000001,2020-03-31,404
California,San Joaquin,84006077,6077.0,37.93433732,-121.2730061,2020-03-31,122
California,San Luis Obispo,84006079,6079.0,35.38822029,-120.4039028,2020-03-31,67
California,San Mateo,84006081,6081.0,37.422880799999994,-122.32755459999998,2020-03-31,299
California,Santa Barbara,84006083,6083.0,34.65329488,-120.0188492,2020-03-31,89
California,Santa Clara,84006085,6085.0,37.23104908,-121.6970462,2020-03-31,774
California,Santa Cruz,84006087,6087.0,37.05580291,-122.0066524,2020-03-31,40
California,Shasta,84006089,6089.0,40.76391419,-122.0396884,2020-03-31,5
California,Sierra,84006091,6091.0,39.57713498,-120.52007009999998,2020-03-31,0
California,Siskiyou,84006093,6093.0,41.59198861,-122.54074340000001,2020-03-31,3
California,Solano,84006095,6095.0,38.26827353,-121.9357113,2020-03-31,33
California,Sonoma,84006097,6097.0,38.52746429,-122.88625060000001,2020-03-31,58
California,Stanislaus,84006099,6099.0,37.55862499,-120.9970722,2020-03-31,29
California,Sutter,84006101,6101.0,39.03417539,-121.6945899,2020-03-31,8
California,Tehama,84006103,6103.0,40.12570935,-122.23701709999999,2020-03-31,0
California,Trinity,84006105,6105.0,40.64917670000001,-123.114713,2020-03-31,0
California,Tulare,84006107,6107.0,36.22026558,-118.8020203,2020-03-31,44
California,Tuolumne,84006109,6109.0,38.02644018,-119.95250929999999,2020-03-31,1
California,Unassigned,84090006,90006.0,0.0,0.0,2020-03-31,0
California,Ventura,84006111,6111.0,34.44465746,-119.09106129999999,2020-03-31,143
California,Yolo,84006113,6113.0,38.68278902,-121.90182879999999,2020-03-31,21
California,Yuba,84006115,6115.0,39.26255932,-121.35356440000001,2020-03-31,5
Colorado,Adams,84008001,8001.0,39.87432092,-104.3362578,2020-03-31,181
Colorado,Alamosa,84008003,8003.0,37.57250606,-105.7885451,2020-03-31,1
Colorado,Arapahoe,84008005,8005.0,39.64977461,-104.3353617,2020-03-31,333
Colorado,Archuleta,84008007,8007.0,37.19474156,-107.04768670000001,2020-03-31,1
Colorado,Baca,84008009,8009.0,37.31940883,-102.5603223,2020-03-31,3
Colorado,Bent,84008011,8011.0,37.95474293,-103.0720195,2020-03-31,0
Colorado,Boulder,84008013,8013.0,40.09313619,-105.3546767,2020-03-31,107
Colorado,Broomfield,84008014,8014.0,39.95998787,-105.0566324,2020-03-31,20
Colorado,Chaffee,84008015,8015.0,38.74745778,-106.19265729999998,2020-03-31,17
Colorado,Cheyenne,84008017,8017.0,38.82777431,-102.6032558,2020-03-31,0
Colorado,Clear Creek,84008019,8019.0,39.68864463,-105.6463118,2020-03-31,4
Colorado,Conejos,84008021,8021.0,37.201606,-106.19174879999998,2020-03-31,0
Colorado,Costilla,84008023,8023.0,37.27732493,-105.4276548,2020-03-31,3
Colorado,Crowley,84008025,8025.0,38.32608609,-103.7844965,2020-03-31,1
Colorado,Custer,84008027,8027.0,38.10883162,-105.3683478,2020-03-31,0
Colorado,Delta,84008029,8029.0,38.86246243,-107.86313419999999,2020-03-31,1
Colorado,Denver,84008031,8031.0,39.76018276,-104.87256950000001,2020-03-31,539
Colorado,Dolores,84008033,8033.0,37.75208676,-108.5211585,2020-03-31,0
Colorado,Douglas,84008035,8035.0,39.33133796,-104.930001,2020-03-31,141
Colorado,Eagle,84008037,8037.0,39.62754308,-106.6933637,2020-03-31,227
Colorado,El Paso,84008041,8041.0,38.83240149,-104.5251411,2020-03-31,286
Colorado,Elbert,84008039,8039.0,39.28656773,-104.13587209999999,2020-03-31,5
Colorado,Fremont,84008043,8043.0,38.47362326,-105.43996670000001,2020-03-31,2
Colorado,Garfield,84008045,8045.0,39.59921777,-107.902708,2020-03-31,33
Colorado,Gilpin,84008047,8047.0,39.85646523,-105.5252597,2020-03-31,0
Colorado,Grand,84008049,8049.0,40.10603347,-106.11780420000001,2020-03-31,4
Colorado,Gunnison,84008051,8051.0,38.66611652,-107.0320729,2020-03-31,82
Colorado,Hinsdale,84008053,8053.0,37.82247444,-107.3004345,2020-03-31,1
Colorado,Huerfano,84008055,8055.0,37.68473101,-104.9612585,2020-03-31,1
Colorado,Jackson,84008057,8057.0,40.66593870000001,-106.3408905,2020-03-31,0
Colorado,Jefferson,84008059,8059.0,39.58635604,-105.2517692,2020-03-31,304
Colorado,Kiowa,84008061,8061.0,38.43260896,-102.7392145,2020-03-31,0
Colorado,Kit Carson,84008063,8063.0,39.30497777,-102.60221990000001,2020-03-31,2
Colorado,La Plata,84008067,8067.0,37.28632032,-107.8429014,2020-03-31,23
Colorado,Lake,84008065,8065.0,39.20278823,-106.35556969999999,2020-03-31,1
Colorado,Larimer,84008069,8069.0,40.66671597,-105.4625784,2020-03-31,99
Colorado,Las Animas,84008071,8071.0,37.3153406,-104.03764579999999,2020-03-31,0
Colorado,Lincoln,84008073,8073.0,38.98749519,-103.51366490000001,2020-03-31,1
Colorado,Logan,84008075,8075.0,40.7249637,-103.110817,2020-03-31,6
Colorado,Mesa,84008077,8077.0,39.01787888,-108.469799,2020-03-31,14
Colorado,Mineral,84008079,8079.0,37.66954283,-106.92816979999999,2020-03-31,2
Colorado,Moffat,84008081,8081.0,40.61810999,-108.2070876,2020-03-31,4
Colorado,Montezuma,84008083,8083.0,37.33859579,-108.59588570000001,2020-03-31,1
Colorado,Montrose,84008085,8085.0,38.40214114,-108.26390220000002,2020-03-31,13
Colorado,Morgan,84008087,8087.0,40.26279810000001,-103.8093302,2020-03-31,4
Colorado,Otero,84008089,8089.0,37.9014485,-103.7173385,2020-03-31,3
Colorado,Ouray,84008091,8091.0,38.14717457,-107.7675136,2020-03-31,0
Colorado,Out of CO,84080008,80008.0,0.0,0.0,2020-03-31,0
Colorado,Park,84008093,8093.0,39.120926000000004,-105.7182065,2020-03-31,3
Colorado,Phillips,84008095,8095.0,40.59414277,-102.3577703,2020-03-31,1
Colorado,Pitkin,84008097,8097.0,39.21720112,-106.9310027,2020-03-31,30
Colorado,Prowers,84008099,8099.0,37.95544985,-102.3926052,2020-03-31,0
Colorado,Pueblo,84008101,8101.0,38.17359144,-104.5127437,2020-03-31,21
Colorado,Rio Blanco,84008103,8103.0,39.97913541,-108.2179009,2020-03-31,0
Colorado,Rio Grande,84008105,8105.0,37.5836865,-106.3847838,2020-03-31,5
Colorado,Routt,84008107,8107.0,40.48596505,-106.9905548,2020-03-31,17
Colorado,Saguache,84008109,8109.0,38.08054629,-106.28246599999999,2020-03-31,1
Colorado,San Juan,84008111,8111.0,37.76248981,-107.67632890000002,2020-03-31,0
Colorado,San Miguel,84008113,8113.0,38.00450883,-108.4020725,2020-03-31,4
Colorado,Sedgwick,84008115,8115.0,40.87595412,-102.3519227,2020-03-31,0
Colorado,Summit,84008117,8117.0,39.63803232,-106.1150762,2020-03-31,20
Colorado,Teller,84008119,8119.0,38.88133511,-105.16148929999999,2020-03-31,7
Colorado,Unassigned,84090008,90008.0,0.0,0.0,2020-03-31,129
Colorado,Washington,84008121,8121.0,39.97015535,-103.202587,2020-03-31,1
Colorado,Weld,84008123,8123.0,40.55499405,-104.39296209999999,2020-03-31,255
Colorado,Yuma,84008125,8125.0,40.00346839,-102.4258673,2020-03-31,2
Texas,Anderson,84048001,48001.0,31.81534745,-95.65354823,2020-03-31,1
Texas,Andrews,84048003,48003.0,32.30468633,-102.63765479999999,2020-03-31,0
Texas,Angelina,84048005,48005.0,31.25457347,-94.60901487,2020-03-31,5
Texas,Aransas,84048007,48007.0,28.10556197,-96.9995047,2020-03-31,0
Texas,Archer,84048009,48009.0,33.61569967,-98.68754589,2020-03-31,0
Texas,Armstrong,84048011,48011.0,34.96507426,-101.35748740000001,2020-03-31,0
Texas,Atascosa,84048013,48013.0,28.89333001,-98.52730485,2020-03-31,2
Texas,Austin,84048015,48015.0,29.88548725,-96.27736949,2020-03-31,2
Texas,Bailey,84048017,48017.0,34.06854817,-102.8299707,2020-03-31,0
Texas,Bandera,84048019,48019.0,29.74619598,-99.24598147,2020-03-31,0
Texas,Bastrop,84048021,48021.0,30.10370699,-97.31206354,2020-03-31,6
Texas,Baylor,84048023,48023.0,33.61640794,-99.21352901,2020-03-31,0
Texas,Bee,84048025,48025.0,28.41761668,-97.74215593,2020-03-31,0
Texas,Bell,84048027,48027.0,31.03736027,-97.4785025,2020-03-31,44
Texas,Bexar,84048029,48029.0,29.44928723,-98.52019748,2020-03-31,168
Texas,Blanco,84048031,48031.0,30.26640707,-98.3999852,2020-03-31,1
Texas,Borden,84048033,48033.0,32.74363984,-101.43165090000001,2020-03-31,0
Texas,Bosque,84048035,48035.0,31.89978581,-97.63613524,2020-03-31,0
Texas,Bowie,84048037,48037.0,33.44626922,-94.41834132,2020-03-31,9
Texas,Brazoria,84048039,48039.0,29.18757369,-95.44563172,2020-03-31,95
Texas,Brazos,84048041,48041.0,30.663644800000004,-96.30205577,2020-03-31,53
Texas,Brewster,84048043,48043.0,29.81008251,-103.25203259999999,2020-03-31,0
Texas,Briscoe,84048045,48045.0,34.53026962,-101.2084947,2020-03-31,0
Texas,Brooks,84048047,48047.0,27.03103197,-98.21808402,2020-03-31,0
Texas,Brown,84048049,48049.0,31.77430356,-98.99907113,2020-03-31,3
Texas,Burleson,84048051,48051.0,30.49273808,-96.62158484,2020-03-31,1
Texas,Burnet,84048053,48053.0,30.78801353,-98.181887,2020-03-31,3
Texas,Caldwell,84048055,48055.0,29.83668859,-97.61814775,2020-03-31,1
Texas,Calhoun,84048057,48057.0,28.47048236,-96.61633945,2020-03-31,7
Texas,Callahan,84048059,48059.0,32.29760619,-99.37326312,2020-03-31,0
Texas,Cameron,84048061,48061.0,26.14524221,-97.48140372,2020-03-31,26
Texas,Camp,84048063,48063.0,32.97195142,-94.97790104,2020-03-31,0
Texas,Carson,84048065,48065.0,35.40365929,-101.35426690000001,2020-03-31,0
Texas,Cass,84048067,48067.0,33.07499881,-94.34646905,2020-03-31,2
Texas,Castro,84048069,48069.0,34.53016752,-102.2617243,2020-03-31,8
Texas,Chambers,84048071,48071.0,29.70972016,-94.67154501,2020-03-31,8
Texas,Cherokee,84048073,48073.0,31.837258000000002,-95.16559897,2020-03-31,2
Texas,Childress,84048075,48075.0,34.529304100000004,-100.2077916,2020-03-31,0
Texas,Clay,84048077,48077.0,33.78686685,-98.20771198,2020-03-31,0
Texas,Cochran,84048079,48079.0,33.60425307,-102.82844990000001,2020-03-31,0
Texas,Coke,84048081,48081.0,31.88911733,-100.5297533,2020-03-31,0
Texas,Coleman,84048083,48083.0,31.76736834,-99.45240766,2020-03-31,0
Texas,Collin,84048085,48085.0,33.18820114,-96.57264368,2020-03-31,160
Texas,Collingsworth,84048087,48087.0,34.96489496,-100.27001109999999,2020-03-31,0
Texas,Colorado,84048089,48089.0,29.622097999999998,-96.5273805,2020-03-31,2
Texas,Comal,84048091,48091.0,29.80811278,-98.27647225,2020-03-31,11
Texas,Comanche,84048093,48093.0,31.94854689,-98.55876441,2020-03-31,2
Texas,Concho,84048095,48095.0,31.32635934,-99.86473038,2020-03-31,0
Texas,Cooke,84048097,48097.0,33.63979567,-97.21240912,2020-03-31,0
Texas,Coryell,84048099,48099.0,31.39078397,-97.79936155,2020-03-31,1
Texas,Cottle,84048101,48101.0,34.07783319,-100.27850620000001,2020-03-31,0
Texas,Crane,84048103,48103.0,31.43052248,-102.5143314,2020-03-31,2
Texas,Crockett,84048105,48105.0,30.72367027,-101.4134238,2020-03-31,0
Texas,Crosby,84048107,48107.0,33.61431553,-101.30003640000001,2020-03-31,0
Texas,Culberson,84048109,48109.0,31.44506775,-104.5185739,2020-03-31,0
Texas,Dallam,84048111,48111.0,36.27787176,-102.60207249999999,2020-03-31,0
Texas,Dallas,84048113,48113.0,32.76670599,-96.77796049999999,2020-03-31,631
Texas,Dawson,84048115,48115.0,32.74255572,-101.94772420000001,2020-03-31,3
Texas,DeWitt,84048123,48123.0,29.08101855,-97.35681170000001,2020-03-31,6
Texas,Deaf Smith,84048117,48117.0,34.96522957,-102.6054267,2020-03-31,2
Texas,Delta,84048119,48119.0,33.38570922,-95.66921122,2020-03-31,0
Texas,Denton,84048121,48121.0,33.20521901,-97.11691153,2020-03-31,206
Texas,Dickens,84048125,48125.0,33.61616822,-100.7788855,2020-03-31,0
Texas,Dimmit,84048127,48127.0,28.42270064,-99.75645095,2020-03-31,0
Texas,Donley,84048129,48129.0,34.96517499,-100.8140093,2020-03-31,1
Texas,Duval,84048131,48131.0,27.68184592,-98.50864568,2020-03-31,0
Texas,Eastland,84048133,48133.0,32.32743996,-98.83243566,2020-03-31,4
Texas,Ector,84048135,48135.0,31.86898877,-102.54294279999999,2020-03-31,10
Texas,Edwards,84048137,48137.0,29.98202582,-100.304252,2020-03-31,0
Texas,El Paso,84048141,48141.0,31.76980765,-106.23632749999999,2020-03-31,53
Texas,Ellis,84048139,48139.0,32.34894117,-96.79371841,2020-03-31,20
Texas,Erath,84048143,48143.0,32.23602653,-98.21773417,2020-03-31,5
Texas,Falls,84048145,48145.0,31.25350609,-96.93630086,2020-03-31,1
Texas,Fannin,84048147,48147.0,33.59564294,-96.10751083,2020-03-31,1
Texas,Fayette,84048149,48149.0,29.87788372,-96.92076062,2020-03-31,2
Texas,Fisher,84048151,48151.0,32.74281316,-100.40193020000001,2020-03-31,0
Texas,Floyd,84048153,48153.0,34.07227468,-101.3031546,2020-03-31,0
Texas,Foard,84048155,48155.0,33.97308618,-99.7767797,2020-03-31,0
Texas,Fort Bend,84048157,48157.0,29.52704478,-95.77219463,2020-03-31,163
Texas,Franklin,84048159,48159.0,33.17653242,-95.21917243,2020-03-31,1
Texas,Freestone,84048161,48161.0,31.70422788,-96.15072516,2020-03-31,0
Texas,Frio,84048163,48163.0,28.86751206,-99.10804207,2020-03-31,0
Texas,Gaines,84048165,48165.0,32.74055318,-102.6353295,2020-03-31,1
Texas,Galveston,84048167,48167.0,29.40167322,-94.90469073,2020-03-31,92
Texas,Garza,84048169,48169.0,33.17969345,-101.2984114,2020-03-31,0
Texas,Gillespie,84048171,48171.0,30.31824095,-98.94676915,2020-03-31,1
Texas,Glasscock,84048173,48173.0,31.86942909,-101.5207776,2020-03-31,0
Texas,Goliad,84048175,48175.0,28.65696592,-97.42760647,2020-03-31,0
Texas,Gonzales,84048177,48177.0,29.45634206,-97.49424032,2020-03-31,0
Texas,Gray,84048179,48179.0,35.40081878,-100.8129222,2020-03-31,0
Texas,Grayson,84048181,48181.0,33.62744998,-96.67753461,2020-03-31,7
Texas,Gregg,84048183,48183.0,32.47940482,-94.81591935,2020-03-31,5
Texas,Grimes,84048185,48185.0,30.54579585,-95.98902499,2020-03-31,3
Texas,Guadalupe,84048187,48187.0,29.58165339,-97.94786822,2020-03-31,15
Texas,Hale,84048189,48189.0,34.07044901,-101.82681140000001,2020-03-31,1
Texas,Hall,84048191,48191.0,34.5307555,-100.68138520000001,2020-03-31,0
Texas,Hamilton,84048193,48193.0,31.70470573,-98.11083887,2020-03-31,0
Texas,Hansford,84048195,48195.0,36.27743284,-101.3545796,2020-03-31,0
Texas,Hardeman,84048197,48197.0,34.28944521,-99.74632408,2020-03-31,0
Texas,Hardin,84048199,48199.0,30.33364686,-94.38931817,2020-03-31,12
Texas,Harris,84048201,48201.0,29.85864939,-95.39339521,2020-03-31,680
Texas,Harrison,84048203,48203.0,32.54935988,-94.36934071,2020-03-31,1
Texas,Hartley,84048205,48205.0,35.84008013,-102.6029022,2020-03-31,0
Texas,Haskell,84048207,48207.0,33.17823584,-99.73037358,2020-03-31,0
Texas,Hays,84048209,48209.0,30.05669873,-98.02944344,2020-03-31,38
Texas,Hemphill,84048211,48211.0,35.83764858,-100.2703577,2020-03-31,0
Texas,Henderson,84048213,48213.0,32.21128872,-95.85846587,2020-03-31,1
Texas,Hidalgo,84048215,48215.0,26.39418217,-98.18299696,2020-03-31,38
Texas,Hill,84048217,48217.0,31.99045053,-97.13423143,2020-03-31,1
Texas,Hockley,84048219,48219.0,33.60771256,-102.3431676,2020-03-31,7
Texas,Hood,84048221,48221.0,32.42990927,-97.83242024,2020-03-31,6
Texas,Hopkins,84048223,48223.0,33.14875072,-95.56351139,2020-03-31,2
Texas,Houston,84048225,48225.0,31.31925973,-95.42226208,2020-03-31,0
Texas,Howard,84048227,48227.0,32.30621324,-101.4356444,2020-03-31,0
Texas,Hudspeth,84048229,48229.0,31.45628381,-105.388178,2020-03-31,0
Texas,Hunt,84048231,48231.0,33.12351514,-96.08551032,2020-03-31,4
Texas,Hutchinson,84048233,48233.0,35.84006574,-101.3546643,2020-03-31,0
Texas,Irion,84048235,48235.0,31.30375559,-100.982439,2020-03-31,0
Texas,Jack,84048237,48237.0,33.23377248,-98.17283469,2020-03-31,0
Texas,Jackson,84048239,48239.0,28.95472367,-96.57749563,2020-03-31,1
Texas,Jasper,84048241,48241.0,30.74685667,-94.02667579,2020-03-31,1
Texas,Jeff Davis,84048243,48243.0,30.71490589,-104.1399973,2020-03-31,0
Texas,Jefferson,84048245,48245.0,29.8832777,-94.16434171,2020-03-31,18
Texas,Jim Hogg,84048247,48247.0,27.04453923,-98.69681870000001,2020-03-31,0
Texas,Jim Wells,84048249,48249.0,27.73103938,-98.0904705,2020-03-31,0
Texas,Johnson,84048251,48251.0,32.37877812,-97.36615819,2020-03-31,8
Texas,Jones,84048253,48253.0,32.73997145,-99.87861576,2020-03-31,0
Texas,Karnes,84048255,48255.0,28.90705334,-97.85960149,2020-03-31,2
Texas,Kaufman,84048257,48257.0,32.599141700000004,-96.28734728,2020-03-31,3
Texas,Kendall,84048259,48259.0,29.94414155,-98.7113588,2020-03-31,7
Texas,Kenedy,84048261,48261.0,26.92601662,-97.66413984,2020-03-31,0
Texas,Kent,84048263,48263.0,33.18104136,-100.7780939,2020-03-31,0
Texas,Kerr,84048265,48265.0,30.06040006,-99.34930144,2020-03-31,1
Texas,Kimble,84048267,48267.0,30.48678918,-99.74856473,2020-03-31,0
Texas,King,84048269,48269.0,33.61643847,-100.2558057,2020-03-31,0
Texas,Kinney,84048271,48271.0,29.34967888,-100.41866379999999,2020-03-31,0
Texas,Kleberg,84048273,48273.0,27.42435506,-97.69894948,2020-03-31,1
Texas,Knox,84048275,48275.0,33.60519951,-99.74229059999999,2020-03-31,0
